clube;estado;cidade;lat;lon;ibge;wins;draws;losses;pagerank_score;cluster_k2;cluster_k3;cluster_k4;cluster_k5;cluster_k6;cluster_k7;cluster_k8;sub_cluster_m0_k2;sub_cluster_m0_k3;sub_cluster_m0_k4;sub_cluster_m1_k2;sub_cluster_m1_k3;sub_cluster_m1_k4;sub_cluster_m2_k2;sub_cluster_m2_k3;sub_cluster_m2_k4
NÁUTICO;PE;Recife;-8.04666;-34.8771;2611606.0;130;103;114;0.0042566018983925;0;2;2;2;2;2;2;;;;;;;0.0;2.0;2.0
BOTAFOGO;SP;Guará;-20.4302;-47.8236;3517703.0;254;248;382;0.0040306204113103;1;1;0;0;1;0;3;;;;0.0;0.0;3.0;;;
LONDRINA;PR;Londrina;-23.304;-51.1691;4113700.0;119;119;135;0.0037602404492367;1;1;0;0;1;0;1;;;;0.0;0.0;0.0;;;
ABC;RN;Natal;-5.7945;-35.2119;2408102.0;312;244;196;0.0037147255927054;0;2;2;2;2;2;2;;;;;;;0.0;2.0;2.0
VOLTA REDONDA;RJ;Volta Redonda;-22.5202;-44.0996;3306305.0;294;218;280;0.003708699866413;1;1;0;0;5;5;5;;;;0.0;2.0;2.0;;;
TOMBENSE;MG;Tombos;-20.9086;-42.0228;3169208.0;240;250;258;0.0036630556928085;1;1;0;0;5;5;5;;;;0.0;2.0;2.0;;;
CONFIANÇA;SE;Aracaju;-10.9091;-37.0677;2800308.0;125;72;107;0.0036413139127059;0;2;2;2;2;2;2;;;;;;;1.0;0.0;3.0
ITUANO;SP;Itu;-23.2544;-47.2927;3523909.0;288;260;324;0.0035797393354786;1;1;0;0;5;5;5;;;;0.0;2.0;2.0;;;
BRASILIENSE;DF;Brasília;-15.8333;-48.0569;5300108.0;122;47;46;0.003458287300914;1;1;0;0;1;0;3;;;;0.0;0.0;3.0;;;
AMAZONAS;AM;Manaus;-3.11866;-60.0212;1302603.0;105;64;78;0.0034552812611179;0;0;1;1;0;3;7;0.0;1.0;1.0;;;;;;
SÃO BERNARDO;SP;São Bernardo do Campo;-23.6914;-46.5646;3548708.0;184;127;123;0.003312692841023;1;1;0;0;5;5;5;;;;0.0;2.0;2.0;;;
FIGUEIRENSE;SC;Florianópolis;-27.5945;-48.5477;4205407.0;282;260;278;0.0032394771334743;1;1;0;4;4;4;4;;;;1.0;1.0;1.0;;;
YPIRANGA;RS;Erechim;-27.6364;-52.2697;4307005.0;270;208;230;0.0030803896690139;1;1;0;4;4;4;4;;;;1.0;1.0;1.0;;;
AMÉRICA;RN;Natal;-5.79357;-35.1986;2408102.0;320;174;130;0.0030529091914095;0;2;2;2;2;2;2;;;;;;;0.0;2.0;2.0
SÃO JOSÉ;RS;Porto Alegre;-30.0318;-51.2065;4314902.0;272;218;244;0.0030108254573207;1;1;0;4;4;4;4;;;;1.0;1.0;1.0;;;
MANAUS;AM;Manaus;-3.11866;-60.0212;1302603.0;86;70;61;0.0029605038111585;0;0;1;1;0;3;7;0.0;1.0;1.0;;;;;;
BOTAFOGO;PB;João Pessoa;-7.11509;-34.8641;2507507.0;86;84;52;0.0029335631541156;0;2;2;2;2;2;2;;;;;;;0.0;2.0;2.0
FERROVIÁRIA;SP;Botucatu;-22.8837;-48.4437;3507506.0;255;246;185;0.002863204999985;1;1;0;0;5;5;5;;;;0.0;2.0;2.0;;;
RETRÔ;PE;Camaragibe;-8.02351;-34.9782;2603454.0;89;57;54;0.0028012439601082;0;2;2;2;2;2;2;;;;;;;0.0;2.0;2.0
FERROVIÁRIO;CE;Catarina;-6.12291;-39.8736;2303600.0;99;70;81;0.0027944787795997;0;2;2;2;2;2;2;;;;;;;0.0;1.0;0.0
NOVA IGUAÇU;RJ;Nova Iguaçu;-22.7556;-43.4603;3303500.0;236;204;188;0.0027819289288253;1;1;0;0;5;5;5;;;;0.0;2.0;2.0;;;
CAXIAS;RS;Caxias do Sul;-29.1629;-51.1792;4305108.0;276;204;198;0.0026611204270331;1;1;0;4;4;4;4;;;;1.0;1.0;1.0;;;
ALTOS;PI;Altos;-5.03888;-42.4612;2200400.0;92;69;68;0.0025957931999419;0;0;3;3;3;1;0;1.0;0.0;0.0;;;;;;
MARINGÁ;PR;Maringá;-23.4205;-51.9333;4115200.0;95;60;41;0.0025780479739064;1;1;0;0;1;0;1;;;;0.0;0.0;0.0;;;
APARECIDENSE;GO;Aparecida de Goiânia;-16.8198;-49.2469;5201405.0;107;63;95;0.0024990623685702;1;1;0;0;1;0;3;;;;0.0;0.0;3.0;;;
TOCANTINÓPOLIS;TO;Tocantinópolis;-6.32447;-47.4224;1721208.0;64;42;51;0.0024835534512443;0;0;3;3;3;1;0;1.0;0.0;0.0;;;;;;
SANTA CRUZ;PE;Recife;-8.04666;-34.8771;2611606.0;79;69;48;0.0024474246008826;0;2;2;2;2;2;2;;;;;;;0.0;2.0;2.0
OPERÁRIO;MS;Campo Grande;-20.4697;-54.6201;5002704.0;162;108;138;0.002345084992237;1;1;0;0;1;0;1;;;;0.0;0.0;0.0;;;
ATHLETIC;MG;São João del-Rei;-21.1353;-44.2614;3162500.0;220;96;156;0.0022448238588781;1;1;0;0;5;5;5;;;;0.0;2.0;2.0;;;
PORTUGUESA;RJ;Rio de Janeiro;-22.9129;-43.2003;3304557.0;216;234;170;0.0022412323639285;1;1;0;0;5;5;5;;;;0.0;2.0;2.0;;;
FLORESTA;CE;Fortaleza;-3.71664;-38.5423;2304400.0;75;89;91;0.002209785517867;0;2;2;2;2;2;2;;;;;;;0.0;1.0;0.0
CEILÂNDIA;DF;Brasília;-15.8208;-48.1122;5300108.0;71;41;42;0.0022079145935202;1;1;0;0;1;0;3;;;;0.0;0.0;3.0;;;
BRASIL;RS;Farroupilha;-29.2227;-51.3419;4307906.0;57;62;99;0.0021961863386584;1;1;0;4;4;4;4;;;;1.0;1.0;1.0;;;
CASCAVEL;PR;Cascavel;-24.9573;-53.459;4104808.0;100;89;80;0.0021736606130436;1;1;0;4;4;4;4;;;;1.0;1.0;1.0;;;
SOUSA;PB;Sousa;-6.75148;-38.2311;2516201.0;75;46;59;0.0021297213748836;0;2;2;2;2;2;2;;;;;;;0.0;1.0;0.0
SÃO RAIMUNDO;RR;Boa Vista;2.82384;-60.6753;1400100.0;79;37;36;0.0020734729122674;0;0;1;1;0;3;7;0.0;1.0;1.0;;;;;;
SERGIPE;SE;Aracaju;-10.9091;-37.0677;2800308.0;67;54;44;0.0020298703172287;0;2;2;2;2;2;2;;;;;;;1.0;0.0;3.0
DEMOCRATA;MG;Governador Valadares;-18.8545;-41.9555;3127701.0;168;166;210;0.0020007958963793;1;1;0;0;5;5;5;;;;0.0;2.0;2.0;;;
REAL NOROESTE;ES;Águia Branca;-18.9846;-40.7437;3200136.0;214;166;210;0.0019669113935761;1;1;0;0;5;5;5;;;;0.0;2.0;2.0;;;
ANÁPOLIS;GO;Anápolis;-16.3281;-48.953;5201108.0;73;61;52;0.0019594842318658;1;1;0;0;1;0;3;;;;0.0;0.0;3.0;;;
ITABAIANA;SE;Itabaiana;-10.6853;-37.4253;2802908.0;76;47;54;0.0019140787194123;0;2;2;2;2;2;2;;;;;;;1.0;0.0;3.0
COSTA RICA;MS;Costa Rica;-18.5432;-53.1287;5003256.0;148;72;102;0.0018442501678167;1;1;0;0;1;0;1;;;;0.0;0.0;0.0;;;
PARANÁ;PR;Campo Mourão;-24.0463;-52.378;4104303.0;55;56;90;0.0018045740518119;1;1;0;0;1;0;1;;;;0.0;0.0;0.0;;;
ASA;AL;Maceió;-9.66599;-35.735;2704302.0;79;58;60;0.0017969101744877;0;2;2;2;2;2;2;;;;;;;1.0;0.0;3.0
JUAZEIRENSE;BA;Juazeiro;-9.41622;-40.5033;2918407.0;53;39;47;0.0017530296077097;0;2;2;2;2;2;2;;;;;;;1.0;0.0;1.0
JACUIPENSE;BA;Riachão do Jacuípe;-11.8067;-39.3818;2926301.0;55;52;49;0.0017492290167404;0;2;2;2;2;2;2;;;;;;;1.0;0.0;1.0
CAMPINENSE;PB;Campina Grande;-7.22196;-35.8731;2504009.0;57;56;49;0.0017394354264526;0;2;2;2;2;2;2;;;;;;;0.0;2.0;2.0
TUNA LUSO;PA;Belém;-1.4554;-48.4898;1501402.0;53;31;39;0.001708209130906;0;0;3;3;3;1;0;1.0;0.0;3.0;;;;;;
RIO BRANCO;ES;Vitória;-20.3155;-40.3128;3205309.0;196;120;148;0.0016982394076472;1;1;0;0;5;5;5;;;;0.0;2.0;2.0;;;
TREZE;PB;Campina Grande;-7.22196;-35.8731;2504009.0;56;46;47;0.0016787394708074;0;2;2;2;2;2;2;;;;;;;0.0;2.0;2.0
GAMA;DF;Brasília;-16.0183;-48.0667;5300108.0;56;27;35;0.0016746521013864;1;1;0;0;1;0;3;;;;0.0;0.0;3.0;;;
BAHIA DE FEIRA;BA;Feira de Santana;-12.2664;-38.9663;2910800.0;63;49;46;0.0016378841695669;0;2;2;2;2;2;2;;;;;;;1.0;0.0;1.0
OESTE;SP;Itápolis;-21.5942;-48.8149;3522703.0;142;156;212;0.0016371990565649;1;1;0;0;1;0;3;;;;0.0;0.0;3.0;;;
LAGARTO;SE;Lagarto;-10.9136;-37.6689;2803500.0;53;35;28;0.0016328541373874;0;2;2;2;2;2;2;;;;;;;1.0;0.0;3.0
MARCÍLIO DIAS;SC;Itajaí;-26.9101;-48.6705;4208203.0;218;228;180;0.0016324962026338;1;1;0;4;4;4;4;;;;1.0;1.0;1.0;;;
MOTO CLUB;MA;São Luís;-2.5307;-44.3068;2111300.0;61;43;50;0.0016181265335106;0;0;3;3;3;1;0;1.0;0.0;0.0;;;;;;
MARANHÃO;MA;Bacabal;-4.22447;-44.7832;2101202.0;58;45;28;0.0015836355586901;0;0;3;3;3;1;0;1.0;0.0;0.0;;;;;;
INTER DE LIMEIRA;SP;Caraguatatuba;-23.6125;-45.4125;3510500.0;190;160;216;0.0015635994492244;1;1;0;0;5;5;5;;;;0.0;2.0;2.0;;;
SÃO LUIZ;RS;Ijuí;-28.388;-53.92;4310207.0;156;152;172;0.001551216375521;1;1;0;4;4;4;4;;;;1.0;1.0;1.0;;;
JOINVILLE;SC;Joinville;-26.3045;-48.8487;4209102.0;140;220;186;0.0015481379848931;1;1;0;4;4;4;4;;;;1.0;1.0;1.0;;;
VITÓRIA;ES;Vitória;-20.3155;-40.3128;3205309.0;198;92;116;0.0015142833006812;1;1;0;0;5;5;5;;;;0.0;2.0;2.0;;;
POUSO ALEGRE;MG;Pouso Alegre;-22.2266;-45.9389;3152501.0;158;118;182;0.0015009150698656;1;1;0;0;5;5;5;;;;0.0;2.0;2.0;;;
TREM;AP;Macapá;0.034934;-51.0694;1600303.0;49;27;42;0.0015003453940737;0;0;3;3;3;1;0;1.0;0.0;3.0;;;;;;
OLARIA;RJ;Rio de Janeiro;-22.842143012;-43.26699613;3304557.0;136;90;90;0.0014577794407592;1;1;0;0;5;5;5;;;;0.0;2.0;2.0;;;
FLUMINENSE;PI;Teresina;-5.09194;-42.8034;2211001.0;46;36;42;0.001427690849657;0;0;3;3;3;1;0;1.0;0.0;0.0;;;;;;
MANAUARA;AM;Manaus;-3.11866;-60.0212;1302603.0;50;31;15;0.0014192715790616;0;0;1;1;0;3;7;0.0;1.0;1.0;;;;;;
ATLÉTICO;BA;Alagoinhas;-12.1335;-38.4208;2900702.0;48;37;49;0.0014134363942535;0;2;2;2;2;2;2;;;;;;;1.0;0.0;1.0
GRÊMIO PRUDENTE;SP;Presidente Prudente;-22.1207;-51.3925;3541406.0;59;29;32;0.0014061630912067;1;1;0;0;1;0;1;;;;0.0;0.0;0.0;;;
IGUATU;CE;Iguatu;-6.36281;-39.2892;2305506.0;56;32;45;0.0014051735797725;0;2;2;2;2;2;2;;;;;;;0.0;1.0;0.0
RIO BRANCO;SP;Americana;-22.7374;-47.3331;3501608.0;43;38;29;0.001385259146652;1;1;0;0;5;5;5;;;;0.0;2.0;2.0;;;
MARICÁ;RJ;Maricá;-22.9354;-42.8246;3302700.0;71;66;51;0.0013843537223424;1;1;0;0;5;5;5;;;;0.0;2.0;2.0;;;
4 DE JULHO;PI;Piripiri;-4.27157;-41.7716;2208403.0;39;40;36;0.0013798269754683;0;0;3;3;3;1;0;1.0;0.0;0.0;;;;;;
PORTUGUESA;SP;São Paulo;-23.5329;-46.6395;3550308.0;158;118;120;0.0013763536747408;1;1;0;0;5;5;5;;;;0.0;2.0;2.0;;;
BARRA;SC;Balneário Camboriú;-26.9922;-48.6353;4202008.0;148;104;154;0.0013648237144626;1;1;0;4;4;4;4;;;;1.0;1.0;1.0;;;
DOURADOS;MS;Glória de Dourados;-22.4136;-54.2335;5004007.0;118;58;62;0.0013585159034241;1;1;0;0;1;0;1;;;;0.0;0.0;0.0;;;
CAPITAL CF;DF;Brasília;-15.8222;-47.9781;5300108.0;37;22;14;0.0013329102079049;1;1;0;0;1;0;3;;;;0.0;0.0;3.0;;;
CIANORTE;PR;Cianorte;-23.6599;-52.6054;4105508.0;52;46;54;0.0013307213696714;1;1;0;0;1;0;1;;;;0.0;0.0;0.0;;;
CAMBORIÚ;SC;Camboriú;-27.0241;-48.6503;4203204.0;60;43;41;0.0013197942224951;1;1;0;4;4;4;4;;;;1.0;1.0;1.0;;;
SAMPAIO CORRÊA;RJ;Rio de Janeiro;-22.9129;-43.2003;3304557.0;68;42;58;0.0013179862342174;1;1;0;0;5;5;5;;;;0.0;2.0;2.0;;;
UBERLÂNDIA;MG;Uberlândia;-18.9141;-48.2749;3170206.0;102;110;142;0.0013097221125114;1;1;0;0;1;0;3;;;;0.0;0.0;3.0;;;
AIMORÉ;RS;São Leopoldo;-29.7545;-51.1498;4318705.0;140;92;198;0.0013087834633639;1;1;0;4;4;4;4;;;;1.0;1.0;1.0;;;
DUQUE DE CAXIAS;RJ;Duque de Caxias;-22.7858;-43.3049;3301702.0;54;44;53;0.0013047516978154;1;1;0;0;5;5;5;;;;0.0;2.0;2.0;;;
XV DE PIRACICABA;SP;Caraguatatuba;-23.6125;-45.4125;3510500.0;126;118;104;0.0013003174612501;1;1;0;0;5;5;5;;;;0.0;2.0;2.0;;;
SANTO ANDRÉ;SP;Santo André;-23.6737;-46.5432;3547809.0;160;138;188;0.0012947688966893;1;1;0;0;5;5;5;;;;0.0;2.0;2.0;;;
BETIM FUTEBOL;MG;Betim;-19.9668;-44.2008;3106705.0;62;43;31;0.001276087414802;1;1;0;0;5;5;5;;;;0.0;2.0;2.0;;;
GRAMADENSE;RS;Santa Maria;-29.6868;-53.8149;4316907.0;34;9;20;0.0012758498465674;1;1;0;4;4;4;4;;;;1.0;1.0;1.0;;;
GRÊMIO SÃO-CARLENSE;SP;São Carlos;-22.0174;-47.886;3548906.0;43;34;23;0.0012749025868018;1;1;0;0;5;5;5;;;;0.0;2.0;2.0;;;
PARNAHYBA;PI;Parnaíba;-2.90585;-41.7754;2207702.0;37;42;36;0.0012712650588944;0;0;3;3;3;1;0;1.0;0.0;0.0;;;;;;
NOVO HAMBURGO;RS;Novo Hamburgo;-29.6875;-51.1328;4313409.0;94;126;150;0.0012693265475438;1;1;0;4;4;4;4;;;;1.0;1.0;1.0;;;
XV DE JAÚ;SP;Piracicaba;-22.7338;-47.6476;3538709.0;46;25;27;0.0012594122775646;1;1;0;0;5;5;5;;;;0.0;2.0;2.0;;;
HERCÍLIO LUZ;SC;Tubarão;-28.4713;-49.0144;4218707.0;98;80;65;0.0012520744548438;1;1;0;4;4;4;4;;;;1.0;1.0;1.0;;;
MIXTO;MT;Cuiabá;-15.601;-56.0974;5103403.0;110;114;100;0.0012477133932187;1;1;0;0;1;0;1;;;;0.0;0.0;0.0;;;
NOVA VENÉCIA;ES;Nova Venécia;-18.715;-40.4053;3203908.0;72;49;37;0.0012475825242931;1;1;0;0;5;5;5;;;;0.0;2.0;2.0;;;
NOVA MUTUM;MT;Nova Mutum;-13.8344;-56.0728;5106224.0;124;116;112;0.0012461182401239;1;1;0;0;1;0;1;;;;0.0;0.0;0.0;;;
CAPITAL;TO;Palmas;-10.1844;-48.3336;1721000.0;23;15;33;0.0012394960298927;0;0;3;3;3;1;0;1.0;0.0;0.0;;;;;;
CENTRAL;PE;Caruaru;-8.28455;-35.9699;2604106.0;40;50;34;0.0012391704351731;0;2;2;2;2;2;2;;;;;;;0.0;2.0;2.0
BELFORD ROXO;RJ;Belford Roxo;-22.764;-43.3992;3300456.0;44;20;16;0.0012383915942852;1;1;0;0;5;5;5;;;;0.0;2.0;2.0;;;
AMERICA;RJ;Rio de Janeiro;-22.9129;-43.2003;3304557.0;50;61;39;0.0012375958490234;1;1;0;0;5;5;5;;;;0.0;2.0;2.0;;;
ÁGUA SANTA;SP;Diadema;-23.6813;-46.6205;3513801.0;70;64;72;0.0012351582187231;1;1;0;0;5;5;5;;;;0.0;2.0;2.0;;;
URT;MG;Patos de Minas;-18.5853;-46.5181;3148004.0;106;74;110;0.0012329713713712;1;1;0;0;1;0;3;;;;0.0;0.0;3.0;;;
SÃO BENTO;SP;Sorocaba;-23.4969;-47.4451;3552205.0;108;156;150;0.0012229253452679;1;1;0;0;5;5;5;;;;0.0;2.0;2.0;;;
CASTANHAL;PA;Castanhal;-1.29797;-47.9167;1502400.0;35;32;30;0.0012211680546994;0;0;3;3;3;1;0;1.0;0.0;3.0;;;;;;
AUDAX RIO;RJ;São João de Meriti;-22.8058;-43.3729;3305109.0;104;78;186;0.0012110374123579;1;1;0;0;5;5;5;;;;0.0;2.0;2.0;;;
SÃO JOSÉ;SP;São José dos Campos;-23.1896;-45.8841;3549904.0;64;47;40;0.0012091006961787;1;1;0;0;5;5;5;;;;0.0;2.0;2.0;;;
AMERICANO;RJ;Campos dos Goytacazes;-21.7622;-41.3181;3301009.0;55;46;46;0.0012067052381262;1;1;0;0;5;5;5;;;;0.0;2.0;2.0;;;
ÁGUIA NEGRA;MS;Rio Brilhante;-21.8033;-54.5427;5007208.0;76;76;102;0.0012042400551658;1;1;0;0;1;0;1;;;;0.0;0.0;0.0;;;
REAL BRASÍLIA;DF;Brasília;-15.7795;-47.9297;5300108.0;29;19;32;0.0011967216348334;1;1;0;0;1;0;3;;;;0.0;0.0;3.0;;;
PADUANO;RJ;Rio de Janeiro;-22.9129;-43.2003;3304557.0;43;27;23;0.0011912865217484;1;1;0;0;5;5;5;;;;0.0;2.0;2.0;;;
MARACANÃ;CE;Maracanaú;-3.86699;-38.6259;2307650.0;42;31;37;0.0011911822273729;0;2;2;2;2;2;2;;;;;;;0.0;1.0;0.0
INTERPORTO;TO;Porto Nacional;-10.7027;-48.408;1718204.0;29;23;21;0.0011904598521935;0;0;3;3;3;1;0;1.0;0.0;0.0;;;;;;
GLOBO;RN;Ceará-Mirim;-5.64323;-35.4247;2402600.0;90;84;174;0.0011890879977723;0;2;2;2;2;2;2;;;;;;;0.0;2.0;2.0
CALDENSE;MG;Poços de Caldas;-21.78;-46.5692;3151800.0;104;80;178;0.001188252517438;1;1;0;0;5;5;5;;;;0.0;2.0;2.0;;;
TAQUARITINGA;SP;Taquaritinga;-21.4049;-48.5103;3553708.0;44;22;23;0.0011861537676627;1;1;0;0;1;0;3;;;;0.0;0.0;3.0;;;
OPERÁRIO FERROVIÁRIO;PR;Ponta Grossa;-25.0916;-50.1668;4119905.0;46;23;21;0.0011799028575306;1;1;0;4;4;4;4;;;;1.0;1.0;1.0;;;
PÉROLAS NEGRAS;RJ;Piraí;-22.6289;-43.8972;3304003.0;110;86;100;0.001163759739417;1;1;0;0;5;5;5;;;;0.0;2.0;2.0;;;
SERRA;ES;Serra;-20.121;-40.3074;3205002.0;150;82;120;0.0011626333510918;1;1;0;0;5;5;5;;;;0.0;2.0;2.0;;;
ICASA;CE;Juazeiro do Norte;-7.19621;-39.3076;2307304.0;49;39;30;0.0011610299040571;0;2;2;2;2;2;2;;;;;;;0.0;1.0;0.0
IMPERATRIZ;MA;Imperatriz;-5.51847;-47.4777;2105302.0;39;30;49;0.0011455345378183;0;0;3;3;3;1;0;1.0;0.0;0.0;;;;;;
AQUIDAUANENSE;MS;Aquidauana;-20.4666;-55.7868;5001102.0;76;50;128;0.0011430433008653;1;1;0;0;1;0;1;;;;0.0;0.0;0.0;;;
LUVERDENSE;MT;Lucas do Rio Verde;-13.0588;-55.9042;5105259.0;106;78;122;0.0011399807636545;1;1;0;0;1;0;1;;;;0.0;0.0;0.0;;;
RESENDE;RJ;Resende;-22.4705;-44.4509;3304201.0;106;112;220;0.0011376663714244;1;1;0;0;5;5;5;;;;0.0;2.0;2.0;;;
CEOV OPERÁRIO;MT;Várzea Grande;-15.65;-56.1325;5108402.0;128;100;80;0.0011341521097148;1;1;0;0;1;0;1;;;;0.0;0.0;0.0;;;
SERRANO;RJ;Petrópolis;-22.52;-43.1926;3303906.0;46;39;47;0.0011329558435203;1;1;0;0;5;5;5;;;;0.0;2.0;2.0;;;
CAUCAIA;CE;Caucaia;-3.72797;-38.6619;2303709.0;42;44;56;0.0011289356702119;0;2;2;2;2;2;2;;;;;;;0.0;1.0;0.0
BOAVISTA;RJ;Saquarema;-22.9292;-42.5099;3305505.0;106;126;176;0.0011284655710021;1;1;0;0;5;5;5;;;;0.0;2.0;2.0;;;
CABOFRIENSE;RJ;Cabo Frio;-22.8894;-42.0286;3300704.0;86;76;130;0.0011193455121217;1;1;0;0;5;5;5;;;;0.0;2.0;2.0;;;
BELA VISTA;TO;Cachoeirinha;-6.1219;-47.9211;1703842.0;18;13;16;0.0011168790345027;0;0;3;3;3;1;0;1.0;0.0;0.0;;;;;;
NACIONAL;AM;Manaus;-3.11866;-60.0212;1302603.0;34;28;23;0.0011131149554528;0;0;1;1;0;3;7;0.0;1.0;1.0;;;;;;
HUMAITÁ;AC;Porto Acre;-9.58138;-67.5478;1200807.0;40;23;54;0.0011114331732621;0;0;1;1;0;6;6;0.0;2.0;2.0;;;;;;
ANAPOLINA;GO;Anápolis;-16.3281;-48.953;5201108.0;32;25;21;0.0011087873193086;1;1;0;0;1;0;3;;;;0.0;0.0;3.0;;;
RIO BRANCO;AC;Rio Branco;-9.974;-67.8076;5107206.0;49;27;34;0.0011019663869445;0;0;1;1;0;6;6;0.0;2.0;2.0;;;;;;
ALECRIM;RN;Natal;-5.79357;-35.1986;2408102.0;24;14;29;0.0010897100198173;0;2;2;2;2;2;2;;;;;;;0.0;2.0;2.0
PORTO VITÓRIA;ES;Vitória;-20.3155;-40.3128;3205309.0;156;74;76;0.001082028821884;1;1;0;0;5;5;5;;;;0.0;2.0;2.0;;;
CATANDUVA;SP;Catanduva;-21.1314;-48.977;3511102.0;41;29;24;0.0010784144023067;1;1;0;0;1;0;3;;;;0.0;0.0;3.0;;;
UNIVASSOURAS ARTSUL;RJ;Nova Iguaçu;-22.7556;-43.4603;3303500.0;37;43;41;0.0010775199267509;1;1;0;0;5;5;5;;;;0.0;2.0;2.0;;;
UNIÃO RONDONÓPOLIS;MT;Rondonópolis;-16.4673;-54.6372;5107602.0;64;40;39;0.0010726017185683;1;1;0;0;1;0;1;;;;0.0;0.0;0.0;;;
GRÊMIO ANÁPOLIS;GO;Anápolis;-16.3281;-48.953;5201108.0;25;34;39;0.0010695210628224;1;1;0;0;1;0;3;;;;0.0;0.0;3.0;;;
FALCON;SE;Aracaju;-10.9091;-37.0677;2800308.0;31;27;31;0.0010683781552617;0;2;2;2;2;2;2;;;;;;;1.0;0.0;3.0
BANGU;RJ;Rio de Janeiro;-22.9129;-43.2003;3304557.0;102;136;188;0.0010667908887513;1;1;0;0;5;5;5;;;;0.0;2.0;2.0;;;
VOCEM;SP;Assis;-22.6622;-50.4181;3504008.0;33;34;18;0.0010587080611896;1;1;0;0;1;0;1;;;;0.0;0.0;0.0;;;
BARRA;SE;Barra dos Coqueiros;-10.91;-37.0317;2800605.0;25;20;20;0.0010573629897203;0;2;2;2;2;2;2;;;;;;;1.0;0.0;3.0
GOIANÉSIA;GO;Goianésia;-15.3118;-49.1162;5208608.0;37;43;55;0.0010544316632332;1;1;0;0;1;0;3;;;;0.0;0.0;3.0;;;
IPATINGA;MG;Ipatinga;-19.4703;-42.5476;3131307.0;78;66;106;0.0010509819436571;1;1;0;0;5;5;5;;;;0.0;2.0;2.0;;;
CRUZEIRO;RS;Cachoeirinha;-29.95;-51.0833;4303103.0;22;6;10;0.0010502552882214;1;1;0;4;4;4;4;;;;1.0;1.0;1.0;;;
SÃO BORJA;RS;São Borja;-28.6578;-56.0036;4318002.0;37;19;20;0.0010470955451529;1;1;0;4;4;4;4;;;;1.0;1.0;1.0;;;
PETROLINA;PE;Petrolina;-9.38866;-40.5027;2611101.0;24;29;30;0.0010445633516399;0;2;2;2;2;2;2;;;;;;;1.0;0.0;1.0
CRAC;GO;Catalão;-18.1658;-47.9461;5205108.0;33;43;38;0.0010439568985117;1;1;0;0;1;0;3;;;;0.0;0.0;3.0;;;
IPORÁ;GO;Iporá;-16.4398;-51.118;5210208.0;33;34;59;0.0010378113285831;1;1;0;0;1;0;3;;;;0.0;0.0;3.0;;;
NOROESTE;SP;Bauru;-22.3246;-49.0871;3506003.0;55;49;40;0.0010324290221075;1;1;0;0;5;5;5;;;;0.0;2.0;2.0;;;
AMÉRICA MINEIRO;MG;Belo Horizonte;-19.9102;-43.9266;3106200.0;69;41;30;0.0010317727240462;1;1;0;0;5;5;5;;;;0.0;2.0;2.0;;;
FRANCANA;SP;Franca;-20.5352;-47.4039;3516200.0;31;31;20;0.0010317075135989;1;1;0;0;1;0;3;;;;0.0;0.0;3.0;;;
CSE;AL;Maceió;-9.66599;-35.735;2704302.0;47;41;39;0.0010304472753992;0;2;2;2;2;2;2;;;;;;;1.0;0.0;3.0
RIO BRANCO DE VENDA NOVA;ES;Nova Venécia;-18.715;-40.4053;3203908.0;61;40;39;0.001023962538873;1;1;0;0;5;5;5;;;;0.0;2.0;2.0;;;
PACAJUS;CE;Pacajus;-4.17107;-38.465;2309607.0;37;39;41;0.0010230110024269;0;2;2;2;2;2;2;;;;;;;0.0;1.0;0.0
POTIGUAR;RN;Mossoró;-5.18374;-37.3474;2408003.0;112;74;166;0.0010222754690551;0;2;2;2;2;2;2;;;;;;;0.0;1.0;0.0
MARÍLIA;SP;Marília;-22.2171;-49.9501;3529005.0;92;68;72;0.0010210898523138;1;1;0;0;1;0;1;;;;0.0;0.0;0.0;;;
CAMETÁ;PA;Cametá;-2.24295;-49.4979;1502103.0;28;13;25;0.00101518798841;0;0;3;3;3;1;0;1.0;0.0;3.0;;;;;;
MONTE AZUL;SP;Monte Azul Paulista;-20.9065;-48.6387;3531506.0;82;92;122;0.0010091657460711;1;1;0;0;1;0;3;;;;0.0;0.0;3.0;;;
COMERCIAL;MS;Três Lagoas;-20.7849;-51.7007;5008305.0;21;26;48;0.0010031451141035;1;1;0;0;1;0;1;;;;0.0;0.0;0.0;;;
MAMORÉ;MG;Patos de Minas;-18.5699;-46.5013;3148004.0;18;39;22;0.0010017627432484;1;1;0;0;1;0;3;;;;0.0;0.0;3.0;;;
AYMORÉS;MG;Patos de Minas;-18.5699;-46.5013;3148004.0;27;35;35;0.0010006035803268;1;1;0;0;1;0;3;;;;0.0;0.0;3.0;;;
VELO CLUBE;SP;Rio Claro;-22.4114;-47.5614;3543907.0;49;41;47;0.0009989864351268;1;1;0;0;5;5;5;;;;0.0;2.0;2.0;;;
OLÍMPICO;SE;Itabaianinha;-11.2693;-37.7875;2803005.0;41;10;15;0.0009974501539239;0;2;2;2;2;2;2;;;;;;;1.0;0.0;3.0
FLAMENGO;SP;Guarulhos;-23.4538;-46.5333;3518800.0;38;24;20;0.0009965319983902;1;1;0;0;5;5;5;;;;0.0;2.0;2.0;;;
PAULISTA;SP;Jundiaí;-23.1852;-46.8974;3525904.0;38;24;33;0.0009946936010846;1;1;0;0;5;5;5;;;;0.0;2.0;2.0;;;
BOA ESPORTE;MG;Varginha;-21.5556;-45.4364;3170701.0;34;34;52;0.0009922681097325;1;1;0;0;5;5;5;;;;0.0;2.0;2.0;;;
CENTRO OESTE;GO;Goiás;-15.9333;-50.14;5208905.0;24;18;10;0.0009912218933058;1;1;0;0;1;0;3;;;;0.0;0.0;3.0;;;
MACAPÁ;AP;Macapá;0.034934;-51.0694;1600303.0;11;7;22;0.0009832272854425;0;0;3;3;3;1;0;1.0;0.0;3.0;;;;;;
PARAGOMINAS;PA;Paragominas;-3.00212;-47.3527;1505502.0;25;22;21;0.000981719219268;0;0;3;3;3;1;0;1.0;0.0;3.0;;;;;;
CA VOTUPORANGUENSE;SP;Guaíra;-20.3196;-48.312;3517406.0;47;42;41;0.0009796599547789;1;1;0;0;1;0;3;;;;0.0;0.0;3.0;;;
PALMAS;TO;Palmas;-10.1844;-48.3336;1721000.0;26;12;36;0.0009773061321395;0;0;3;3;3;1;0;1.0;0.0;0.0;;;;;;
MONSOON;RS;Capão da Canoa;-29.75;-50.0167;4304630.0;27;24;17;0.0009762946073854;1;1;0;4;4;4;4;;;;1.0;1.0;1.0;;;
BRAGANTINO;PA;Bragança;-1.06126;-46.7826;1501709.0;26;25;26;0.0009750938327008;0;0;3;3;3;1;0;1.0;0.0;3.0;;;;;;
BONSUCESSO;RJ;Rio de Janeiro;-22.9129;-43.2003;3304557.0;32;29;29;0.0009735992559449;1;1;0;0;5;5;5;;;;0.0;2.0;2.0;;;
CAPIVARIANO;SP;Capivari;-22.9951;-47.5071;3510401.0;62;37;40;0.0009702452079976;1;1;0;0;5;5;5;;;;0.0;2.0;2.0;;;
UNIÃO BARBARENSE;SP;Mogi das Cruzes;-23.5208;-46.1854;3530607.0;31;18;22;0.000961885732485;1;1;0;0;5;5;5;;;;0.0;2.0;2.0;;;
VILLA NOVA;MG;Nova Lima;-19.9758;-43.8509;3144805.0;76;58;128;0.0009596848899611;1;1;0;0;5;5;5;;;;0.0;2.0;2.0;;;
AGUIA DE MARABA;PA;Marabá;-5.38075;-49.1327;1504208.0;16;21;19;0.0009547740494924;0;0;3;3;3;1;0;1.0;0.0;0.0;;;;;;
NACIONAL;SP;Limeira;-22.566;-47.397;3526902.0;41;32;42;0.000952902091416;1;1;0;0;5;5;5;;;;0.0;2.0;2.0;;;
PENAPOLENSE;SP;Penápolis;-21.4148;-50.0769;3537305.0;31;36;40;0.0009512128114633;1;1;0;0;1;0;1;;;;0.0;0.0;0.0;;;
ITAPIRENSE;SP;Itapira;-22.4357;-46.8224;3522604.0;29;33;34;0.0009480908435746;1;1;0;0;5;5;5;;;;0.0;2.0;2.0;;;
INDEPENDENTE DE LIMEIRA;SP;Limeira;-22.566;-47.397;3526902.0;28;22;37;0.0009461850501996;1;1;0;0;5;5;5;;;;0.0;2.0;2.0;;;
JI-PARANÁ;RO;Ji-Paraná;-10.8777;-61.9322;1100122.0;24;20;25;0.0009454922206245;0;0;1;1;0;6;6;0.0;2.0;2.0;;;;;;
GUARANI V. AIRES;RS;Cruz Alta;-28.645;-53.6048;4306106.0;28;8;5;0.0009443210143459;1;1;0;4;4;4;4;;;;1.0;1.0;1.0;;;
REAL ARIQUEMES;RO;Ariquemes;-9.90571;-63.0325;1100023.0;24;12;25;0.0009408734241119;0;0;1;1;0;6;6;0.0;2.0;2.0;;;;;;
MURICI;AL;Murici;-9.30682;-35.9428;2705507.0;34;32;44;0.0009405685901269;0;2;2;2;2;2;2;;;;;;;1.0;0.0;3.0
TUPYNAMBÁS;MG;Juiz de Fora;-21.7595;-43.3398;3136702.0;30;37;49;0.0009396640959649;1;1;0;0;5;5;5;;;;0.0;2.0;2.0;;;
GOYTACAZ;RJ;Campos dos Goytacazes;-21.7622;-41.3181;3301009.0;31;16;28;0.000938336160643;1;1;0;0;5;5;5;;;;0.0;2.0;2.0;;;
DESPORTIVA FERROVIÁRIA;ES;Cariacica;-20.3375;-40.3847;3201308.0;60;42;48;0.0009379777936994;1;1;0;0;5;5;5;;;;0.0;2.0;2.0;;;
SÃO RAIMUNDO;PA;Santarém;-2.43849;-54.6996;1506807.0;24;10;10;0.0009339012736443;0;0;3;3;3;1;0;1.0;0.0;3.0;;;;;;
GOIÂNIA;GO;Goiânia;-16.6864;-49.2643;5208707.0;39;27;53;0.0009328059000941;1;1;0;0;1;0;3;;;;0.0;0.0;3.0;;;
SANTOS;AP;Macapá;0.034934;-51.0694;1600303.0;27;18;21;0.0009304977718588;0;0;3;3;3;1;0;1.0;0.0;3.0;;;;;;
CANAÃ;PA;Canaã dos Carajás;-6.495;-49.8731;1502152.0;21;11;18;0.000929512700415;0;0;3;3;3;1;0;1.0;0.0;0.0;;;;;;
MAUÁ;SP;Mauá;-23.6678;-46.4614;3529401.0;35;30;23;0.0009293563828048;1;1;0;0;5;5;5;;;;0.0;2.0;2.0;;;
INHUMAS;GO;Inhumas;-16.3611;-49.5001;5210000.0;28;15;25;0.0009290673953263;1;1;0;0;1;0;3;;;;0.0;0.0;3.0;;;
SANTA CRUZ DE NATAL;RN;Santa Cruz;-6.22475;-36.0193;2411205.0;110;66;162;0.0009262746857082;0;2;2;2;2;2;2;;;;;;;0.0;2.0;2.0
GALVEZ;AC;Rio Branco;-9.974;-67.8076;5107206.0;41;24;32;0.0009194635306202;0;0;1;1;0;6;6;0.0;2.0;2.0;;;;;;
AZURIZ FUTEBOL;PR;Pato Branco;-26.2292;-52.6706;4118501.0;28;25;31;0.0009180726565342;1;1;0;4;4;4;4;;;;1.0;1.0;1.0;;;
JUVENTUS;SP;São Paulo;-23.5329;-46.6395;3550308.0;38;48;49;0.0009163109694907;1;1;0;0;5;5;5;;;;0.0;2.0;2.0;;;
RIO CLARO;SP;Bastos;-21.921;-50.7357;3505807.0;38;52;47;0.0009159463096304;1;1;0;0;1;0;1;;;;0.0;0.0;0.0;;;
ÁGUIA;PA;Marabá;-5.38075;-49.1327;1504208.0;25;23;25;0.0009152469848661;0;0;3;3;3;1;0;1.0;0.0;0.0;;;;;;
GAZIN PORTO VELHO;RO;Porto Velho;-8.76077;-63.8999;1100205.0;29;16;21;0.0009140174166939;0;0;1;1;0;6;6;0.0;2.0;2.0;;;;;;
ITABUNA;BA;Itabuna;-14.7876;-39.2781;2914802.0;33;28;17;0.0009121457719475;0;2;2;2;2;2;2;;;;;;;1.0;0.0;1.0
GOIATUBA;GO;Goiatuba;-18.0105;-49.3658;5209101.0;36;26;30;0.0009116129713722;1;1;0;0;1;0;3;;;;0.0;0.0;3.0;;;
PRIMAVERA;SP;Indaiatuba;-23.0816;-47.2101;3520509.0;48;53;35;0.0009110650196795;1;1;0;0;5;5;5;;;;0.0;2.0;2.0;;;
UNI SOUZA;RJ;Rio de Janeiro;-22.8669;-43.3458;3304557.0;33;16;14;0.0009087792582259;1;1;0;0;5;5;5;;;;0.0;2.0;2.0;;;
GONÇALENSE;RJ;Petrópolis;-22.5047;-43.1814;3303906.0;46;26;25;0.0009059183801276;1;1;0;0;5;5;5;;;;0.0;2.0;2.0;;;
AFOGADOS DA INGAZEIRA;PE;Afogados da Ingazeira;-7.74312;-37.631;2600104.0;24;29;22;0.0009043688754645;0;2;2;2;2;2;2;;;;;;;0.0;1.0;0.0
DESPORTIVO BRASIL;SP;Porto Feliz;-23.2093;-47.5251;3540606.0;40;32;38;0.0009040779112083;1;1;0;0;5;5;5;;;;0.0;2.0;2.0;;;
NORTH ESPORTE CLUBE;MG;Montes Claros;-16.7244;-43.8617;3143302.0;27;24;17;0.0009040490837031;1;1;0;0;1;0;3;;;;0.0;0.0;3.0;;;
NACIONAL ATL. MURIAÉ;MG;Muriaé;-21.13;-42.3693;3143906.0;29;43;32;0.0009011519996905;1;1;0;0;5;5;5;;;;0.0;2.0;2.0;;;
TRINDADE;GO;Trindade;-16.6517;-49.4927;5221403.0;22;10;16;0.0008963998784595;1;1;0;0;1;0;3;;;;0.0;0.0;3.0;;;
CRUZEIRO;AL;Arapiraca;-9.75164;-36.6604;2700300.0;38;12;33;0.0008932919995802;0;2;2;2;2;2;2;;;;;;;1.0;0.0;3.0
GUARANY;SE;Porto da Folha;-9.91626;-37.2842;2805604.0;33;19;14;0.0008908527449567;0;2;2;2;2;2;2;;;;;;;1.0;0.0;3.0
INDEPENDENTE;AP;Santana;-0.0583;-51.1817;1600600.0;24;13;11;0.0008887168487979;0;0;3;3;3;1;0;1.0;0.0;3.0;;;;;;
TAUBATÉ;SP;Taubaté;-23.0104;-45.5593;3554102.0;38;43;54;0.0008822169149805;1;1;0;0;5;5;5;;;;0.0;2.0;2.0;;;
GURUPI;TO;Gurupi;-11.7279;-49.068;1709500.0;17;16;17;0.0008817724572262;0;0;3;3;3;1;0;1.0;0.0;0.0;;;;;;
VARGINHA;MG;Varginha;-21.5597;-45.4389;3170701.0;26;28;29;0.0008799084474115;1;1;0;0;5;5;5;;;;0.0;2.0;2.0;;;
PRINCESA;AM;Manacapuru;-3.29066;-60.6216;1302504.0;21;25;15;0.0008796761370526;0;0;1;1;0;3;7;0.0;1.0;1.0;;;;;;
UNIÃO ATLÉTICO;TO;Araguaína;-7.1925;-48.2078;1702109.0;18;11;6;0.0008782519206037;0;0;3;3;3;1;0;1.0;0.0;0.0;;;;;;
VASCO;RJ;Rio de Janeiro;-22.9129;-43.2003;3304557.0;65;40;46;0.0008754781746909;1;1;0;0;5;5;5;;;;0.0;2.0;2.0;;;
FRIBURGUENSE;RJ;Nova Friburgo;-22.2932;-42.5377;3303401.0;30;28;60;0.0008740970737364;1;1;0;0;5;5;5;;;;0.0;2.0;2.0;;;
SÃO RAIMUNDO;AM;Manaus;-3.11866;-60.0212;1302603.0;25;21;25;0.0008735278117282;0;0;1;1;0;3;7;0.0;1.0;1.0;;;;;;
ITABIRITO;MG;Itaú de Minas;-20.7375;-46.7525;3133758.0;66;48;70;0.0008718543691424;1;1;0;0;1;0;3;;;;0.0;0.0;3.0;;;
CAMPO GRANDE;RJ;Rio de Janeiro;-22.9129;-43.2003;3304557.0;37;24;33;0.0008718445217791;1;1;0;0;5;5;5;;;;0.0;2.0;2.0;;;
SALGUEIRO;PE;Salgueiro;-8.07373;-39.1247;2612208.0;29;23;22;0.0008687070314762;0;2;2;2;2;2;2;;;;;;;0.0;1.0;0.0
UNIÃO SUZANO;SP;Mogi das Cruzes;-23.5208;-46.1854;3530607.0;43;24;36;0.0008675955524547;1;1;0;0;5;5;5;;;;0.0;2.0;2.0;;;
UBERABA;MG;Uberaba;-19.7472;-47.9381;3170107.0;23;20;20;0.000867433635614;1;1;0;0;1;0;3;;;;0.0;0.0;3.0;;;
INTER DE BEBEDOURO;SP;Caraguatatuba;-23.6125;-45.4125;3510500.0;31;22;30;0.000865413026452;1;1;0;0;5;5;5;;;;0.0;2.0;2.0;;;
SÃO GONÇALO;RJ;São Gonçalo;-22.8268;-43.0634;3304904.0;35;30;36;0.000864469012937;1;1;0;0;5;5;5;;;;0.0;2.0;2.0;;;
REAL SPORT CLUB;RS;Capão da Canoa;-29.7642;-50.0282;4304630.0;12;9;23;0.0008633692205243;1;1;0;4;4;4;4;;;;1.0;1.0;1.0;;;
PORTUGUESA SANTISTA;SP;São Paulo;-23.5329;-46.6395;3550308.0;70;100;96;0.0008614669088692;1;1;0;0;5;5;5;;;;0.0;2.0;2.0;;;
RIO GRANDE;RS;Rio Grande;-32.0349;-52.1071;4315602.0;32;19;41;0.0008599464599986;1;1;0;4;4;4;4;;;;1.0;1.0;1.0;;;
GE BRASIL;RS;Farroupilha;-29.2227;-51.3419;4307906.0;43;63;52;0.0008596096686454;1;1;0;4;4;4;4;;;;1.0;1.0;1.0;;;
ATLÉTICO GLORIENSE;SE;Lagarto;-10.9136;-37.6689;2803500.0;28;18;25;0.0008588667470689;0;2;2;2;2;2;2;;;;;;;1.0;0.0;3.0
AMÉRICA;SE;Propriá;-10.2138;-36.8442;2805703.0;23;20;24;0.0008581852859204;0;2;2;2;2;2;2;;;;;;;1.0;0.0;3.0
SÃO FRANCISCO;PA;Santarém;-2.43849;-54.6996;1506807.0;25;6;25;0.0008571854968286;0;0;3;3;3;1;0;1.0;0.0;3.0;;;;;;
GUANABARA CITY;GO;Goiânia;-16.6864;-49.2643;5208707.0;21;7;19;0.0008546581143926;1;1;0;0;1;0;3;;;;0.0;0.0;3.0;;;
PARANOÁ;DF;Brasília;-15.7744;-47.7817;5300108.0;21;15;20;0.0008544517768636;1;1;0;0;1;0;3;;;;0.0;0.0;3.0;;;
ZUMBI;AL;União dos Palmares;-9.15921;-36.0223;2709301.0;35;10;23;0.0008542745006429;0;2;2;2;2;2;2;;;;;;;1.0;0.0;3.0
AMAZÔNIA INDEPENDENTE;PA;Belterra;-2.63609;-54.9374;1501451.0;18;14;13;0.0008521190958968;0;0;3;3;3;1;0;1.0;0.0;3.0;;;;;;
BANDEIRANTE;SP;Birigui;-21.291;-50.3432;3506508.0;34;28;36;0.0008493723965146;1;1;0;0;1;0;1;;;;0.0;0.0;0.0;;;
NACIONAL;PB;Cabedelo;-6.98731;-34.8284;2503209.0;29;19;28;0.0008482692679281;0;2;2;2;2;2;2;;;;;;;0.0;2.0;2.0
LINENSE;SP;Lins;-21.6718;-49.7526;3527108.0;46;35;49;0.0008412389781267;1;1;0;0;1;0;1;;;;0.0;0.0;0.0;;;
JEQUIÉ;BA;Jequié;-13.8583;-40.0825;2918001.0;25;16;23;0.0008333553792217;0;2;2;2;2;2;2;;;;;;;1.0;0.0;1.0
BARCELONA DE ILHÉUS;BA;Ilhéus;-14.7935;-39.0331;2913606.0;20;21;28;0.0008330979517816;0;2;2;2;2;2;2;;;;;;;1.0;0.0;1.0
SKA BRASIL;SP;Porto Feliz;-23.2093;-47.5251;3540606.0;25;16;18;0.0008324551561011;1;1;0;0;5;5;5;;;;0.0;2.0;2.0;;;
HORIZONTE;CE;Fortaleza;-3.71664;-38.5423;2304400.0;28;21;30;0.0008311333807058;0;2;2;2;2;2;2;;;;;;;0.0;1.0;0.0
BARRA DA TIJUCA;RJ;Teresópolis;-22.4165;-42.9752;3305802.0;32;23;12;0.0008306491680204;1;1;0;0;5;5;5;;;;0.0;2.0;2.0;;;
BARRETOS;SP;Barretos;-20.5531;-48.5698;3505500.0;30;33;35;0.0008304641604003;1;1;0;0;1;0;3;;;;0.0;0.0;3.0;;;
SÃO CAETANO;SP;São Caetano do Sul;-23.6229;-46.5548;3548807.0;76;72;154;0.0008300480534674;1;1;0;0;5;5;5;;;;0.0;2.0;2.0;;;
TIMON;MA;Timon;-5.09769;-42.8329;2112209.0;20;22;26;0.0008274618935496;0;0;3;3;3;1;0;1.0;0.0;0.0;;;;;;
ATLÉTICO;CE;Fortaleza;-3.71664;-38.5423;2304400.0;29;27;38;0.0008267013469712;0;2;2;2;2;2;2;;;;;;;0.0;1.0;0.0
CAETÉ;PA;Cametá;-2.24295;-49.4979;1502103.0;20;9;27;0.0008259542094869;0;0;3;3;3;1;0;1.0;0.0;3.0;;;;;;
RIO DE JANEIRO;RJ;Rio de Janeiro;-22.9129;-43.2003;3304557.0;24;12;22;0.000824036936932;1;1;0;0;5;5;5;;;;0.0;2.0;2.0;;;
GAÚCHO;RS;Passo Fundo;-28.2576;-52.4091;4314100.0;33;15;13;0.0008235755840445;1;1;0;4;4;4;4;;;;1.0;1.0;1.0;;;
CAPITÃO POÇO;PA;Capitão Poço;-1.7456;-47.0575;1502202.0;22;10;12;0.0008224609762774;0;0;3;3;3;1;0;1.0;0.0;3.0;;;;;;
IAPE;MA;São Luís;-2.5307;-44.3068;2111300.0;27;12;19;0.0008212447217927;0;0;3;3;3;1;0;1.0;0.0;0.0;;;;;;
YPIRANGA;AP;Macapá;0.034934;-51.0694;1600303.0;21;12;29;0.0008209494931441;0;0;3;3;3;1;0;1.0;0.0;3.0;;;;;;
NAVIRAIENSE;MS;Naviraí;-23.0618;-54.1995;5005707.0;30;19;15;0.0008188212035836;1;1;0;0;1;0;1;;;;0.0;0.0;0.0;;;
FOZ DO IGUAÇU;PR;União da Vitória;-26.2273;-51.0873;4128203.0;25;20;23;0.0008179357858819;1;1;0;4;4;4;4;;;;1.0;1.0;1.0;;;
COMERCIAL;SP;Ribeirão Preto;-21.1699;-47.8099;3543402.0;36;45;43;0.0008099182408568;1;1;0;0;1;0;3;;;;0.0;0.0;3.0;;;
COIMBRA;MG;Belo Horizonte;-19.9102;-43.9266;3106200.0;24;26;29;0.0008075199391294;1;1;0;0;5;5;5;;;;0.0;2.0;2.0;;;
FLUMINENSE DE FEIRA;BA;Feira de Santana;-12.2664;-38.9663;2910800.0;22;19;19;0.000806758697459;0;2;2;2;2;2;2;;;;;;;1.0;0.0;1.0
CARAPEBUS;RJ;Carapebus;-22.1821;-41.663;3300936.0;32;12;36;0.0008058155874604;1;1;0;0;5;5;5;;;;0.0;2.0;2.0;;;
JUVENTUDE;MA;São Mateus do Maranhão;-4.0417;-44.4717;2111102.0;26;22;32;0.0008053704980336;0;0;3;3;3;1;0;1.0;0.0;0.0;;;;;;
NAÇÃO;SC;Joinville;-26.3045;-48.8487;4209102.0;34;42;59;0.000804296115031;1;1;0;4;4;4;4;;;;1.0;1.0;1.0;;;
VITÓRIA DAS TABOCAS;PE;Vitória de Santo Antão;-8.12819;-35.2976;2616407.0;28;15;24;0.0008039410596503;0;2;2;2;2;2;2;;;;;;;0.0;2.0;2.0
MINEIROS;GO;Mineiros;-17.5654;-52.5537;5213103.0;22;8;13;0.0008029061214773;1;1;0;0;1;0;1;;;;0.0;0.0;0.0;;;
GUARANI;MG;Divinópolis;-20.1446;-44.8912;3122306.0;30;15;25;0.0008024109646118;1;1;0;0;5;5;5;;;;0.0;2.0;2.0;;;
CORURIPE;AL;Coruripe;-10.1276;-36.1717;2702306.0;40;32;33;0.0008015171445602;0;2;2;2;2;2;2;;;;;;;1.0;0.0;3.0
MADUREIRA;RJ;Rio de Janeiro;-22.9129;-43.2003;3304557.0;98;90;156;0.0008009944054991;1;1;0;0;5;5;5;;;;0.0;2.0;2.0;;;
CONCÓRDIA;SC;Concórdia;-27.2335;-52.026;4204301.0;61;54;70;0.000799556561104;1;1;0;4;4;4;4;;;;1.0;1.0;1.0;;;
UNIÃO CACOALENSE;RO;Cacoal;-11.4343;-61.4562;1100049.0;22;16;13;0.0007964694583383;0;0;1;1;0;6;6;0.0;2.0;2.0;;;;;;
ITAPIPOCA;CE;Itapipoca;-3.49933;-39.5836;2306405.0;27;23;19;0.0007954528553013;0;0;3;3;3;1;0;1.0;0.0;0.0;;;;;;
SANTA ROSA;PA;Belém;-1.4554;-48.4898;1501402.0;19;11;23;0.0007953386839618;0;0;3;3;3;1;0;1.0;0.0;3.0;;;;;;
LAGUNA;RN;Tibau do Sul;-6.2344;-35.0911;2414309.0;25;16;10;0.0007906168802449;0;2;2;2;2;2;2;;;;;;;0.0;2.0;2.0
DORENSE;SE;Nossa Senhora das Dores;-10.4854;-37.1963;2804607.0;23;18;31;0.0007888673854254;0;2;2;2;2;2;2;;;;;;;1.0;0.0;3.0
CRATO;CE;Crato;-7.2153;-39.4103;2304202.0;20;21;51;0.0007858286542516;0;2;2;2;2;2;2;;;;;;;0.0;1.0;0.0
MARANGUAPE;CE;Maranguape;-3.89143;-38.6829;2307700.0;24;19;17;0.0007855340837399;0;2;2;2;2;2;2;;;;;;;0.0;1.0;0.0
GAS;RR;Boa Vista;2.8233;-60.675;1400100.0;32;10;10;0.0007854162959338;0;0;1;1;0;3;7;0.0;1.0;1.0;;;;;;
VITÓRIA DA CONQUISTA;BA;Salvador;-12.9718;-38.5011;2927408.0;25;22;28;0.0007772939968871;0;2;2;2;2;2;2;;;;;;;1.0;0.0;1.0
SANTA HELENA;GO;Santa Helena de Goiás;-17.8115;-50.5977;5219308.0;19;12;26;0.0007760989880043;1;1;0;0;1;0;3;;;;0.0;0.0;3.0;;;
COLORADO CAIEIRAS;SP;Caieiras;-23.3639;-46.7411;3509007.0;24;22;23;0.0007748530424922;1;1;0;0;5;5;5;;;;0.0;2.0;2.0;;;
CARLOS RENAUX;SC;Brusque;-27.0977;-48.9107;4202909.0;36;32;32;0.0007747271374375;1;1;0;4;4;4;4;;;;1.0;1.0;1.0;;;
SERC;MS;Chapadão do Sul;-18.7836;-52.6178;5002951.0;29;12;34;0.0007732532243376;1;1;0;0;1;0;1;;;;0.0;0.0;0.0;;;
ATLÉTICO;PB;Paulista;-6.59138;-37.6185;2510907.0;23;16;19;0.0007730382032024;0;2;2;2;2;2;2;;;;;;;0.0;1.0;0.0
PICOS;PI;Picos;-7.07721;-41.467;2208007.0;19;17;25;0.000772810189042;0;0;3;3;3;1;0;1.0;0.0;0.0;;;;;;
VERA CRUZ;PE;Vitória de Santo Antão;-8.12819;-35.2976;2616407.0;24;19;31;0.0007721704586761;0;2;2;2;2;2;2;;;;;;;0.0;2.0;2.0
NACIONAL;PR;Curitiba;-25.4195;-49.2646;4106902.0;25;23;48;0.0007706505434476;1;1;0;4;4;4;4;;;;1.0;1.0;1.0;;;
AMÉRICA;GO;Morrinhos;-17.7334;-49.1059;5213806.0;6;11;12;0.0007703026083394;1;1;0;0;1;0;3;;;;0.0;0.0;3.0;;;
SERRA MACAENSE;RJ;Macaé;-22.3768;-41.7848;3302403.0;31;27;29;0.0007672783906404;1;1;0;0;5;5;5;;;;0.0;2.0;2.0;;;
FAST CLUBE;AM;Manaus;-3.119;-60.0217;1302603.0;25;20;20;0.0007669001047242;0;0;1;1;0;3;7;0.0;1.0;1.0;;;;;;
GRÊMIO MAUAENSE;SP;Mauá;-23.6677;-46.4613;3529401.0;20;28;26;0.000766424835188;1;1;0;0;5;5;5;;;;0.0;2.0;2.0;;;
UNIÃO DE RONDONÓPOLIS;MT;Rondonópolis;-16.4673;-54.6372;5107602.0;24;18;38;0.0007649640818912;1;1;0;0;1;0;1;;;;0.0;0.0;0.0;;;
SÃO PAULO CRYSTAL;PB;Aguiar;-7.0918;-38.1681;2500205.0;19;26;31;0.0007609857889807;0;2;2;2;2;2;2;;;;;;;0.0;1.0;0.0
SÃO PAULO;RS;Rio Grande;-32.0349;-52.1071;4315602.0;20;13;26;0.0007550338454897;1;1;0;4;4;4;4;;;;1.0;1.0;1.0;;;
SANTA CATARINA;SC;Rio do Sul;-27.2156;-49.643;4214805.0;35;28;8;0.0007545608331533;1;1;0;4;4;4;4;;;;1.0;1.0;1.0;;;
ANDRAUS;PR;Campo Largo;-25.4578;-49.5297;4104204.0;26;15;23;0.0007541787512421;1;1;0;4;4;4;4;;;;1.0;1.0;1.0;;;
BELA VISTA;GO;Bela Vista de Goiás;-16.9733;-48.9525;5203302.0;10;10;6;0.0007529828031462;1;1;0;0;1;0;3;;;;0.0;0.0;3.0;;;
SERTÃOZINHO;SP;Sertãozinho;-21.1316;-47.9875;3551702.0;31;40;48;0.0007528751656203;1;1;0;0;1;0;3;;;;0.0;0.0;3.0;;;
FREI PAULISTANO;SE;Frei Paulo;-10.5513;-37.5279;2802304.0;28;19;47;0.0007526417832975;0;2;2;2;2;2;2;;;;;;;1.0;0.0;3.0
SANTA CRUZ;RS;Santa Cruz do Sul;-29.722;-52.4343;4316808.0;54;30;36;0.0007517149541979;1;1;0;4;4;4;4;;;;1.0;1.0;1.0;;;
UNIÃO SÃO JOÃO;SP;Araras;-22.3572;-47.3842;3503307.0;26;21;28;0.0007514337948953;1;1;0;0;5;5;5;;;;0.0;2.0;2.0;;;
TUPI;MG;Juiz de Fora;-21.7595;-43.3398;3136702.0;23;21;37;0.0007511947639409;1;1;0;0;5;5;5;;;;0.0;2.0;2.0;;;
ATLÉTICO CEARENSE;CE;Fortaleza;-3.71664;-38.5423;2304400.0;25;25;37;0.0007468498626808;0;2;2;2;2;2;2;;;;;;;0.0;1.0;0.0
PARAUAPEBAS;PA;Parauapebas;-6.06781;-49.9037;1505536.0;15;7;5;0.0007464583781117;0;0;3;3;3;1;0;1.0;0.0;0.0;;;;;;
AMÉRICA T.O;MG;Belo Horizonte;-19.9102;-43.9266;3106200.0;24;10;12;0.0007448408072896;1;1;0;0;5;5;5;;;;0.0;2.0;2.0;;;
ZINZA;RJ;Rio de Janeiro;-22.9129;-43.2003;3304557.0;24;14;12;0.0007439239786469;1;1;0;0;5;5;5;;;;0.0;2.0;2.0;;;
PARINTINS;AM;Parintins;-2.6283;-56.7358;1303403.0;20;14;12;0.0007438812728431;0;0;1;1;0;3;7;0.0;1.0;1.0;;;;;;
MACAÉ;RJ;Macaé;-22.3768;-41.7848;3302403.0;32;21;75;0.0007438245386746;1;1;0;0;5;5;5;;;;0.0;2.0;2.0;;;
VALERIODOCE;MG;Itabira;-19.6239;-43.2312;3131703.0;18;20;16;0.0007408601616301;1;1;0;0;5;5;5;;;;0.0;2.0;2.0;;;
JOSEENSE;SP;Jacareí;-23.3053;-45.9658;3524402.0;22;24;25;0.0007378676442509;1;1;0;0;5;5;5;;;;0.0;2.0;2.0;;;
PARANAVAÍ;PR;Paranavaí;-23.0816;-52.4617;4118402.0;36;15;17;0.0007355799371845;1;1;0;0;1;0;1;;;;0.0;0.0;0.0;;;
JUVENTUS JARAGUÁ;SC;Jaraguá do Sul;-26.4851;-49.0713;4208906.0;36;41;49;0.0007338021552455;1;1;0;4;4;4;4;;;;1.0;1.0;1.0;;;
SÃO CRISTÓVÃO;RJ;Rio de Janeiro;-22.9129;-43.2003;3304557.0;24;13;18;0.0007324436342015;1;1;0;0;5;5;5;;;;0.0;2.0;2.0;;;
OSASCO AUDAX;SP;Osasco;-23.5324;-46.7916;3534401.0;20;37;53;0.0007273656256415;1;1;0;0;5;5;5;;;;0.0;2.0;2.0;;;
RIO BRANCO;PR;Paranaguá;-25.5161;-48.5225;4118204.0;23;19;35;0.0007264126188835;1;1;0;4;4;4;4;;;;1.0;1.0;1.0;;;
SÃO JOSEENSE;PR;São José dos Pinhais;-25.5347;-49.2064;4125506.0;22;21;29;0.0007226444412614;1;1;0;4;4;4;4;;;;1.0;1.0;1.0;;;
SERRA BRANCA;PB;Cajazeiras;-6.88004;-38.5577;2503704.0;21;14;10;0.0007201370291792;0;2;2;2;2;2;2;;;;;;;0.0;1.0;0.0
IVINHEMA;MS;Ivinhema;-22.3046;-53.8184;5004700.0;28;11;25;0.0007188980534264;1;1;0;0;1;0;1;;;;0.0;0.0;0.0;;;
PATRIOTAS;PR;Curitiba;-25.4195;-49.2646;4106902.0;29;15;17;0.0007185589300148;1;1;0;4;4;4;4;;;;1.0;1.0;1.0;;;
ELITE CD;RS;Rio Grande;-32.0349;-52.1071;4315602.0;21;12;29;0.0007178925922447;1;1;0;4;4;4;4;;;;1.0;1.0;1.0;;;
JABAQUARA;SP;Santos;-23.9535;-46.335;3548500.0;25;13;33;0.0007168161116648;1;1;0;0;5;5;5;;;;0.0;2.0;2.0;;;
TAGUATINGA;DF;Taguatinga;-15.8333;-48.0569;5300108.0;19;13;17;0.0007163895508913;1;1;0;0;1;0;3;;;;0.0;0.0;3.0;;;
BATALHÃO;TO;Palmas;-10.1844;-48.3336;1721000.0;14;7;15;0.0007113431964959;0;0;3;3;3;1;0;1.0;0.0;0.0;;;;;;
PORTO VELHO ESPORTE CLUBE;RO;Porto Velho;-8.76077;-63.8999;1100205.0;21;11;7;0.0007109857350243;0;0;1;1;0;6;6;0.0;2.0;2.0;;;;;;
RIOGRANDENSE;RS;Santa Maria;-29.6868;-53.8149;4316907.0;24;18;26;0.0007105069076944;1;1;0;4;4;4;4;;;;1.0;1.0;1.0;;;
ABECAT OUVIDORENSE;GO;Ouvidor;-18.2277;-47.8355;5215504.0;20;10;11;0.0007091101347725;1;1;0;0;1;0;3;;;;0.0;0.0;3.0;;;
CAMPOS;RJ;Campos dos Goytacazes;-21.7622;-41.3181;3301009.0;15;24;24;0.0007082069546949;1;1;0;0;5;5;5;;;;0.0;2.0;2.0;;;
ASEEV;GO;Guapó;-16.8317;-49.5317;5209101.0;24;7;34;0.0007069729300543;1;1;0;0;1;0;3;;;;0.0;0.0;3.0;;;
TUNTUM;MA;Tuntum;-5.25476;-44.6444;2112308.0;19;22;17;0.0007019558762204;0;0;3;3;3;1;0;1.0;0.0;0.0;;;;;;
LUZIÂNIA;GO;Luziânia;-16.253;-47.95;5212501.0;16;13;29;0.0007003281191869;1;1;0;0;1;0;3;;;;0.0;0.0;3.0;;;
ESTRELA DO NORTE;ES;Cachoeiro de Itapemirim;-20.8462;-41.1198;3201209.0;29;21;56;0.0007002885534095;1;1;0;0;5;5;5;;;;0.0;2.0;2.0;;;
CA PATROCINENSE;MG;Patrocínio;-18.9379;-46.9934;3148103.0;28;29;61;0.00069730210258;1;1;0;0;1;0;3;;;;0.0;0.0;3.0;;;
ARAGUAÍNA;TO;Araguaína;-7.19238;-48.2044;1702109.0;14;8;8;0.0006970157299896;0;0;3;3;3;1;0;1.0;0.0;0.0;;;;;;
IZABELENSE;PA;Santa Izabel do Pará;-1.29686;-48.1606;1506500.0;11;10;11;0.0006951491654978;0;0;3;3;3;1;0;1.0;0.0;3.0;;;;;;
TOCANTINS MIRACEMA;TO;Miracema do Tocantins;-9.56556;-48.393;1713205.0;14;8;28;0.0006941332739686;0;0;3;3;3;1;0;1.0;0.0;0.0;;;;;;
SAMAMBAIA;DF;Brasília;-15.8778;-48.0833;5300108.0;20;8;19;0.0006939512847878;1;1;0;0;1;0;3;;;;0.0;0.0;3.0;;;
JATAIENSE;GO;Jataí;-17.8784;-51.7204;5211909.0;21;13;31;0.0006933080478917;1;1;0;0;1;0;3;;;;0.0;0.0;3.0;;;
PINHEIRENSE;PA;Belém;-1.4554;-48.4898;1501402.0;15;11;13;0.0006907670462825;0;0;3;3;3;1;0;1.0;0.0;3.0;;;;;;
ORATÓRIO;AP;Macapá;-0.0383;-51.0632;1600303.0;16;9;15;0.0006904295111872;0;0;3;3;3;1;0;1.0;0.0;3.0;;;;;;
MATONENSE;SP;Matão;-21.6025;-48.364;3529302.0;23;19;51;0.0006900404249786;1;1;0;0;1;0;3;;;;0.0;0.0;3.0;;;
ÍBIS;PE;Paulista;-7.9408;-34.8722;2610707.0;21;20;28;0.0006898055344646;0;2;2;2;2;2;2;;;;;;;0.0;2.0;2.0
PORTO;PE;Caruaru;-8.28455;-35.9699;2604106.0;13;21;18;0.0006885743942102;0;2;2;2;2;2;2;;;;;;;0.0;2.0;2.0
ATLÉTICO;AC;Rio Branco;-9.974;-67.8076;5107206.0;25;17;36;0.0006864707630608;0;0;1;1;0;6;6;0.0;2.0;2.0;;;;;;
RIO PRETO;SP;São José do Rio Preto;-20.8113;-49.3758;3549805.0;25;28;44;0.0006833817310022;1;1;0;0;1;0;3;;;;0.0;0.0;3.0;;;
INTER DE LAGES;SC;Lages;-27.815;-50.3259;4209300.0;24;29;39;0.0006833322288177;1;1;0;4;4;4;4;;;;1.0;1.0;1.0;;;
TANABI;SP;Tanabi;-20.6228;-49.6563;3553401.0;27;12;21;0.000682328539409;1;1;0;0;1;0;3;;;;0.0;0.0;3.0;;;
BÚZIOS;RJ;Armação dos Búzios;-22.7481;-41.8817;3300233.0;21;9;22;0.0006763033337701;1;1;0;0;5;5;5;;;;0.0;2.0;2.0;;;
DOM BOSCO;MT;Cuiabá;-15.601;-56.0974;5103403.0;32;24;62;0.0006755234126348;1;1;0;0;1;0;1;;;;0.0;0.0;0.0;;;
COLO COLO;BA;Ilhéus;-14.793;-39.046;2913606.0;14;14;15;0.0006752916714533;0;2;2;2;2;2;2;;;;;;;1.0;0.0;1.0
PELOTAS;RS;Pelotas;-31.7653;-52.3375;4314407.0;68;80;98;0.0006752057057679;1;1;0;4;4;4;4;;;;1.0;1.0;1.0;;;
INDEPENDENTE TUCURUÍ;PA;Belterra;-2.63609;-54.9374;1501451.0;15;18;20;0.0006735290928418;0;0;3;3;3;1;0;1.0;0.0;3.0;;;;;;
ESTANCIANO;SE;Estância;-11.2659;-37.4484;2802106.0;30;12;30;0.0006678059101962;0;2;2;2;2;2;2;;;;;;;1.0;0.0;3.0
PINHEIRO;MA;Pinheiro;-2.52224;-45.0788;2108603.0;20;20;24;0.0006632437602576;0;0;3;3;3;1;0;1.0;0.0;0.0;;;;;;
BARBALHA;CE;Barbalha;-7.2982;-39.3021;2301901.0;22;15;34;0.0006612840120886;0;2;2;2;2;2;2;;;;;;;0.0;1.0;0.0
CONFIANÇA;PB;Sapé;-7.09359;-35.228;2515302.0;24;8;18;0.0006610733527383;0;2;2;2;2;2;2;;;;;;;0.0;2.0;2.0
CORDINO;MA;Barra do Corda;-5.49682;-45.2485;2101608.0;15;20;33;0.0006608631668636;0;0;3;3;3;1;0;1.0;0.0;0.0;;;;;;
IGUAÇU;PR;União da Vitória;-26.2273;-51.0873;4128203.0;21;16;18;0.000659257802388;1;1;0;4;4;4;4;;;;1.0;1.0;1.0;;;
ABD;GO;Goiás;-15.9333;-50.14;5208905.0;14;5;6;0.000659146614712;1;1;0;0;1;0;3;;;;0.0;0.0;3.0;;;
ARRAIAL DO CABO;RJ;Araruama;-22.8697;-42.3326;3300209.0;23;21;7;0.0006563965289158;1;1;0;0;5;5;5;;;;0.0;2.0;2.0;;;
FUTEBOL COM VIDA;RS;Viamão;-30.0819;-51.0194;4323002.0;14;2;8;0.0006556793256148;1;1;0;4;4;4;4;;;;1.0;1.0;1.0;;;
INDEPENDÊNCIA;AC;Rio Branco;-9.974;-67.8076;5107206.0;22;13;15;0.0006537765138666;0;0;1;1;0;6;6;0.0;2.0;2.0;;;;;;
NOVA CIDADE;RJ;Nilópolis;-22.8057;-43.4233;3303203.0;17;23;36;0.0006515066168914;1;1;0;0;5;5;5;;;;0.0;2.0;2.0;;;
VILAVELHENSE;ES;Vila Velha;-20.3417;-40.2875;3205200.0;38;25;67;0.0006500190260773;1;1;0;0;5;5;5;;;;0.0;2.0;2.0;;;
ATLÉTICO TUBARÃO;SC;Tubarão;-28.4713;-49.0144;4218707.0;23;22;48;0.0006494567783291;1;1;0;4;4;4;4;;;;1.0;1.0;1.0;;;
BARAÚNAS;RN;Mossoró;-5.18374;-37.3474;2408003.0;25;11;33;0.0006480460452694;0;2;2;2;2;2;2;;;;;;;0.0;1.0;0.0
CEILANDENSE;SE;Nossa Senhora das Dores;-10.4854;-37.1963;2804607.0;15;11;25;0.0006468937849944;0;2;2;2;2;2;2;;;;;;;1.0;0.0;3.0
CARAVAGGIO;SC;Nova Veneza;-28.6364;-49.4978;4211603.0;24;20;26;0.0006442875346306;1;1;0;4;4;4;4;;;;1.0;1.0;1.0;;;
AMÉRICA;SP;São José do Rio Preto;-20.8113;-49.3758;3549805.0;14;20;31;0.000642451827705;1;1;0;0;1;0;3;;;;0.0;0.0;3.0;;;
LARANJA MECÂNICA;PR;Arapongas;-23.4144;-51.4233;4101507.0;20;15;15;0.000642299125389;1;1;0;0;1;0;1;;;;0.0;0.0;0.0;;;
ATLÉTICO PARAENSE;PA;Marituba;-1.36002;-48.3421;1504422.0;18;7;9;0.0006416082364099;0;0;3;3;3;1;0;1.0;0.0;3.0;;;;;;
IMPÉRIO SERRANO;RJ;Rio de Janeiro;-22.9129;-43.2003;3304557.0;20;7;3;0.0006414915558089;1;1;0;0;5;5;5;;;;0.0;2.0;2.0;;;
CORUMBAENSE;MS;Corumbá;-19.0077;-57.651;5003207.0;14;18;25;0.0006401706220119;1;1;0;0;1;0;1;;;;0.0;0.0;0.0;;;
CARIRI;CE;Juazeiro do Norte;-7.2372;-39.4121;2307301.0;19;14;21;0.0006400203179933;0;2;2;2;2;2;2;;;;;;;0.0;1.0;0.0
PARATY;RJ;Paraíba do Sul;-22.1585;-43.304;3303708.0;26;11;21;0.0006394679044753;1;1;0;0;5;5;5;;;;0.0;2.0;2.0;;;
PENAROL;AM;Itacoatiara;-3.13861;-58.4449;1301902.0;17;13;19;0.0006393438377027;0;0;1;1;0;3;7;0.0;1.0;1.0;;;;;;
7 DE ABRIL;RJ;São João de Meriti;-22.8058;-43.3729;3305109.0;23;18;43;0.0006390295761774;1;1;0;0;5;5;5;;;;0.0;2.0;2.0;;;
NITEROIENSE;RJ;Niterói;-22.8832;-43.1034;3303302.0;21;11;8;0.0006375783994635;1;1;0;0;5;5;5;;;;0.0;2.0;2.0;;;
RIO VERDE;GO;Rio Verde;-17.7923;-50.9192;5218805.0;12;10;9;0.0006371088641518;1;1;0;0;1;0;3;;;;0.0;0.0;3.0;;;
AZURIZ;PR;Pato Branco;-26.2292;-52.6706;4118501.0;20;15;21;0.0006348675627159;1;1;0;4;4;4;4;;;;1.0;1.0;1.0;;;
MANTHIQUEIRA;SP;Guaratinguetá;-22.8075;-45.1938;3518404.0;30;11;38;0.0006329349327377;1;1;0;0;5;5;5;;;;0.0;2.0;2.0;;;
COXIM;MS;Coxim;-18.5013;-54.751;5003306.0;18;12;39;0.0006317816055741;1;1;0;0;1;0;1;;;;0.0;0.0;0.0;;;
MAGUARY;PE;Bonito;-8.4719;-35.7272;2602308.0;15;17;12;0.000629276287433;0;2;2;2;2;2;2;;;;;;;0.0;2.0;2.0
TUPY;GO;Jussara;-15.8653;-50.8678;5212204.0;14;11;9;0.0006287729677108;1;1;0;0;1;0;3;;;;0.0;0.0;3.0;;;
ESMAC;PA;Ananindeua;-1.3653;-48.3725;1500800.0;9;10;12;0.0006281604775764;0;0;3;3;3;1;0;1.0;0.0;3.0;;;;;;
ARAXÁ;MG;Araxá;-19.5902;-46.9438;3104007.0;13;10;6;0.0006272904049443;1;1;0;0;1;0;3;;;;0.0;0.0;3.0;;;
PSTC;PR;Cornélio Procópio;-23.1811;-50.6467;4106407.0;18;16;32;0.000624572180691;1;1;0;0;1;0;1;;;;0.0;0.0;0.0;;;
OEIRENSE;PI;Oeiras;-7.0253;-42.1311;2207008.0;23;16;16;0.0006236671362232;0;0;3;3;3;1;0;1.0;0.0;0.0;;;;;;
ARAÇATUBA;SP;Araçatuba;-21.2076;-50.4401;3502804.0;22;8;18;0.0006235725276698;1;1;0;0;1;0;1;;;;0.0;0.0;0.0;;;
BAGÉ;RS;Bagé;-31.3297;-54.0999;4301602.0;22;13;16;0.0006219717972698;1;1;0;4;4;4;4;;;;1.0;1.0;1.0;;;
GUARANY DE SOBRAL;CE;Fortaleza;-3.71664;-38.5423;2304400.0;20;20;23;0.0006216594562719;0;2;2;2;2;2;2;;;;;;;0.0;1.0;0.0
ANGRA DOS REIS;RJ;Angra dos Reis;-23.0011;-44.3196;3300100.0;20;11;45;0.0006210692639238;1;1;0;0;5;5;5;;;;0.0;2.0;2.0;;;
GUAPORÉ;RO;Rolim de Moura;-11.7271;-61.7714;1100288.0;18;10;13;0.0006198673148599;0;0;1;1;0;6;6;0.0;2.0;2.0;;;;;;
GRAPIÚNA;BA;Itabuna;-14.7876;-39.2781;2914802.0;14;13;21;0.0006190882626858;0;2;2;2;2;2;2;;;;;;;1.0;0.0;1.0
AUTO ESPORTE;PB;João Pessoa;-7.11509;-34.8641;2507507.0;17;13;17;0.0006149078587197;0;2;2;2;2;2;2;;;;;;;0.0;2.0;2.0
GUARANI DE JUAZEIRO;CE;Cruz;-2.91813;-40.176;2304251.0;20;16;25;0.0006134855867168;0;0;3;3;3;1;0;1.0;0.0;0.0;;;;;;
CAPIXABA;ES;Nova Venécia;-18.715;-40.4053;3203908.0;44;33;45;0.0006133516006735;1;1;0;0;5;5;5;;;;0.0;2.0;2.0;;;
UNIÃO PARAENSE;PA;Marituba;-1.36002;-48.3421;1504422.0;9;12;15;0.0006118995694361;0;0;3;3;3;1;0;1.0;0.0;3.0;;;;;;
OPERÁRIO;AM;Manacapuru;-3.29066;-60.6216;1302504.0;14;14;20;0.0006113417544721;0;0;1;1;0;3;7;0.0;1.0;1.0;;;;;;
ITZ SPORT;MA;Imperatriz;-5.5264;-47.4819;2105304.0;9;10;14;0.0006110757609173;0;0;3;3;3;1;0;1.0;0.0;0.0;;;;;;
GUARANI;SC;Palhoça;-27.6455;-48.6697;4211900.0;21;23;28;0.0006090951796982;1;1;0;4;4;4;4;;;;1.0;1.0;1.0;;;
SÃO FRANCISCO;AC;Rio Branco;-9.974;-67.8076;5107206.0;24;11;40;0.0006070298559778;0;0;1;1;0;6;6;0.0;2.0;2.0;;;;;;
BARCELONA;RO;Porto Velho;-8.7619;-63.9039;1100205.0;15;12;19;0.0006064821333107;0;0;1;1;0;6;6;0.0;2.0;2.0;;;;;;
CAPITAL;DF;Brasília;-15.8222;-47.9781;5300108.0;8;8;9;0.0006061602868951;1;1;0;0;1;0;3;;;;0.0;0.0;3.0;;;
GUARANY;AL;Maceió;-9.66599;-35.735;2704302.0;15;7;6;0.0006057845795382;0;2;2;2;2;2;2;;;;;;;1.0;0.0;3.0
CSP;PB;João Pessoa;-7.115;-34.8631;2507507.0;20;7;19;0.0006036474537863;0;2;2;2;2;2;2;;;;;;;0.0;2.0;2.0
APAFUT;RS;Caxias do Sul;-29.1678;-51.1794;4305108.0;8;12;14;0.0006029338692168;1;1;0;4;4;4;4;;;;1.0;1.0;1.0;;;
METROPOLITANO;SC;Blumenau;-26.9155;-49.0709;4202404.0;20;18;35;0.0006005111455505;1;1;0;4;4;4;4;;;;1.0;1.0;1.0;;;
TOLEDO;PR;Toledo;-24.7122;-53.7431;4127700.0;18;18;52;0.0005988342219713;1;1;0;4;4;4;4;;;;1.0;1.0;1.0;;;
MOSSORÓ;RN;Mossoró;-5.18374;-37.3474;2408003.0;18;5;13;0.0005986928394865;0;2;2;2;2;2;2;;;;;;;0.0;1.0;0.0
OPERÁRIO;MT;Várzea Grande;-15.65;-56.1325;5108402.0;38;24;66;0.0005973274560544;1;1;0;0;1;0;1;;;;0.0;0.0;0.0;;;
MORRINHOS;GO;Goiás;-15.9333;-50.14;5208905.0;13;17;28;0.0005954705143163;1;1;0;0;1;0;3;;;;0.0;0.0;3.0;;;
UNIÃO LUZIENSE;MG;Santa Luzia;-19.7697;-43.8514;3157807.0;14;15;26;0.0005950255598116;1;1;0;0;5;5;5;;;;0.0;2.0;2.0;;;
BOA;MG;Varginha;-21.5556;-45.4364;3170701.0;13;33;17;0.0005941302726054;1;1;0;0;5;5;5;;;;0.0;2.0;2.0;;;
MARACAJU;MS;Maracaju;-21.6105;-55.1678;5005400.0;6;11;6;0.0005936615798265;1;1;0;0;1;0;1;;;;0.0;0.0;0.0;;;
QFC;RN;Parnamirim;-5.9158;-35.2628;2403251.0;12;4;1;0.000590853512992;0;2;2;2;2;2;2;;;;;;;0.0;2.0;2.0
DECISÃO;PE;Bonito;-8.47163;-35.7292;2602308.0;20;13;19;0.0005904347087947;0;2;2;2;2;2;2;;;;;;;0.0;2.0;2.0
POTYGUAR SERIDOENSE;RN;Currais Novos;-6.25484;-36.5146;2403103.0;23;17;35;0.0005894717247982;0;2;2;2;2;2;2;;;;;;;0.0;2.0;2.0
AE PARACATU;MG;Paracatu;-17.2222;-46.8744;3147006.0;12;14;10;0.0005885814201504;1;1;0;0;1;0;3;;;;0.0;0.0;3.0;;;
ESPORTIVO;RS;Montenegro;-29.6824;-51.4679;4312401.0;54;70;94;0.0005873486205699;1;1;0;4;4;4;4;;;;1.0;1.0;1.0;;;
ARAGUACEMA;TO;Araguaína;-7.19238;-48.2044;1702109.0;12;9;15;0.000587084468811;0;0;3;3;3;1;0;1.0;0.0;0.0;;;;;;
BATAGUASSU;MS;Bataguassu;-21.7144;-52.4228;5001904.0;7;2;1;0.0005753200954685;1;1;0;0;1;0;1;;;;0.0;0.0;0.0;;;
CR AQUIDAUANA;MS;Aquidauana;-20.4714;-55.7872;5001102.0;7;2;1;0.0005753200954685;1;1;0;0;1;0;1;;;;0.0;0.0;0.0;;;
SPORT SINOP;MT;Sinop;-11.8604;-55.5091;5107909.0;23;17;36;0.0005748777711927;1;1;0;0;1;0;1;;;;0.0;0.0;0.0;;;
CORISABBÁ;PI;Floriano;-6.77182;-43.0241;2203909.0;13;18;23;0.0005739041825494;0;0;3;3;3;1;0;1.0;0.0;0.0;;;;;;
JUVENTUS;RJ;Rio de Janeiro;-22.9129;-43.2003;3304557.0;17;10;18;0.0005730088216906;1;1;0;0;5;5;5;;;;0.0;2.0;2.0;;;
POCONÉ;MT;Chapada dos Guimarães;-15.4608;-55.7497;5103007.0;11;14;25;0.0005719411524295;1;1;0;0;1;0;1;;;;0.0;0.0;0.0;;;
INDEPENDENTE;SE;Simão Dias;-10.7417;-37.8108;2807105.0;16;19;24;0.0005713255798204;0;2;2;2;2;2;2;;;;;;;1.0;0.0;3.0
MARUINENSE;SE;Maruim;-10.7308;-37.0856;2804003.0;21;7;29;0.0005697415808302;0;2;2;2;2;2;2;;;;;;;1.0;0.0;3.0
ATLÉTICO CENTRAL;SE;Barra dos Coqueiros;-10.91;-37.0317;2800605.0;24;9;28;0.0005683074985289;0;2;2;2;2;2;2;;;;;;;1.0;0.0;3.0
GUARAÍ;TO;Guaraí;-8.83543;-48.5114;1709302.0;13;7;6;0.0005666121351829;0;0;3;3;3;1;0;1.0;0.0;0.0;;;;;;
SOBRADINHO;DF;Sobradinho;-15.6517;-47.7853;5300108.0;16;9;23;0.0005655339960926;1;1;0;0;1;0;3;;;;0.0;0.0;3.0;;;
PASSO FUNDO;RS;Passo Fundo;-28.2576;-52.4091;4314100.0;30;10;20;0.0005649204502966;1;1;0;4;4;4;4;;;;1.0;1.0;1.0;;;
APARECIDA;GO;Aparecida de Goiânia;-16.8198;-49.2469;5201405.0;14;12;31;0.00056452237212;1;1;0;0;1;0;3;;;;0.0;0.0;3.0;;;
FLAMENGO;PI;Teresina;-5.09194;-42.8034;2211001.0;11;17;35;0.0005636537067429;0;0;3;3;3;1;0;1.0;0.0;0.0;;;;;;
BRASÍLIA;DF;Brasília;-15.7795;-47.9297;5300108.0;17;5;13;0.0005634090818202;1;1;0;0;1;0;3;;;;0.0;0.0;3.0;;;
PLANALTINA;DF;Brasília;-15.7795;-47.9297;5300108.0;17;8;14;0.000562982624982;1;1;0;0;1;0;3;;;;0.0;0.0;3.0;;;
CONTAGEM;MG;Contagem;-19.9391;-44.0531;3118601.0;15;12;14;0.0005623353933596;1;1;0;0;5;5;5;;;;0.0;2.0;2.0;;;
SANTOS;PA;Belém;-1.4554;-48.4898;1501402.0;13;9;14;0.0005617256966227;0;0;3;3;3;1;0;1.0;0.0;3.0;;;;;;
TIRADENTES;CE;Fortaleza;-3.71664;-38.5423;2304400.0;14;15;27;0.0005594935865695;0;2;2;2;2;2;2;;;;;;;0.0;1.0;0.0
ITUMBIARA;GO;Itumbiara;-18.4093;-49.2158;5211503.0;13;17;31;0.000559328648728;1;1;0;0;1;0;3;;;;0.0;0.0;3.0;;;
SANTA CRUZ;RJ;Rio de Janeiro;-22.9129;-43.2003;3304557.0;20;9;16;0.0005581682315989;1;1;0;0;5;5;5;;;;0.0;2.0;2.0;;;
SINOP;MT;Sinop;-11.8604;-55.5091;5107909.0;42;18;92;0.0005579194542099;1;1;0;0;1;0;1;;;;0.0;0.0;0.0;;;
GALÍCIA;BA;Salvador;-12.9718;-38.5011;2927408.0;10;19;12;0.0005575754912824;0;2;2;2;2;2;2;;;;;;;1.0;0.0;1.0
CAÇADOR;SC;Caçador;-26.7757;-51.012;4203006.0;20;17;27;0.0005573431902787;1;1;0;4;4;4;4;;;;1.0;1.0;1.0;;;
BLUMENAU;SC;Blumenau;-26.9155;-49.0709;4202404.0;28;14;20;0.0005563441400599;1;1;0;4;4;4;4;;;;1.0;1.0;1.0;;;
CENTRO LIMOEIRENSE;PE;Limoeiro;-7.8726;-35.4402;2608909.0;15;13;25;0.0005555316154112;0;2;2;2;2;2;2;;;;;;;0.0;2.0;2.0
YPIRANGA;PE;Santa Cruz do Capibaribe;-7.94802;-36.2061;2612505.0;11;17;14;0.0005529338364058;0;2;2;2;2;2;2;;;;;;;0.0;2.0;2.0
RIO SÃO PAULO;RJ;Rio de Janeiro;-22.9129;-43.2003;3304557.0;17;15;28;0.0005487301302431;1;1;0;0;5;5;5;;;;0.0;2.0;2.0;;;
FORÇA E LUZ;RN;Natal;-5.7945;-35.2119;2408102.0;19;31;65;0.000548240674601;0;2;2;2;2;2;2;;;;;;;0.0;2.0;2.0
JACOBINA;BA;Jacobina;-11.1812;-40.5117;2917508.0;14;12;24;0.0005474541222582;0;2;2;2;2;2;2;;;;;;;1.0;0.0;1.0
PENEDENSE;AL;Penedo;-10.2874;-36.5819;2706703.0;17;22;17;0.0005473347653768;0;2;2;2;2;2;2;;;;;;;1.0;0.0;3.0
AÇÃO;MT;Santo Antônio de Leverger;-15.8656;-56.0767;5107802.0;36;42;78;0.0005471127775481;1;1;0;0;1;0;1;;;;0.0;0.0;0.0;;;
CARUARU CITY;PE;Caruaru;-8.28455;-35.9699;2604106.0;11;15;17;0.0005470804800993;0;2;2;2;2;2;2;;;;;;;0.0;2.0;2.0
DESPORTIVA GUARABIRA;PB;Guarabira;-6.85064;-35.485;2506301.0;14;12;19;0.0005449475677981;0;2;2;2;2;2;2;;;;;;;0.0;2.0;2.0
AD CARMÓPOLIS;SE;Carmópolis;-10.6449;-36.9887;2801504.0;12;9;13;0.0005449195887939;0;2;2;2;2;2;2;;;;;;;1.0;0.0;3.0
IPOJUCA;PE;Ipojuca;-8.39303;-35.0609;2607208.0;15;13;13;0.0005419613671195;0;2;2;2;2;2;2;;;;;;;0.0;2.0;2.0
CRIXÁS;GO;Cristalina;-16.7676;-47.6131;5206206.0;6;4;0;0.0005416798390804;1;1;0;0;1;0;3;;;;0.0;0.0;3.0;;;
FONTE NOVA;PA;Augusto Corrêa;-1.05109;-46.6147;1500909.0;10;12;8;0.0005404403092499;0;0;3;3;3;1;0;1.0;0.0;3.0;;;;;;
ITUPIRANGA;PA;Itupiranga;-5.13272;-49.3358;1503705.0;13;12;21;0.0005400080934956;0;0;3;3;3;1;0;1.0;0.0;0.0;;;;;;
PACATUBA;CE;Pacatuba;-3.9784;-38.6183;2309706.0;16;13;32;0.0005386137694552;0;2;2;2;2;2;2;;;;;;;0.0;1.0;0.0
SÃO CARLOS;SP;São Carlos;-22.0174;-47.886;3548906.0;13;14;27;0.0005382967913684;1;1;0;0;5;5;5;;;;0.0;2.0;2.0;;;
PIAUÍ;PI;Teresina;-5.09194;-42.8034;2211001.0;18;12;25;0.00053806266032;0;0;3;3;3;1;0;1.0;0.0;0.0;;;;;;
AMÉRICA DE PEDRINHAS;SE;Propriá;-10.2138;-36.8442;2805703.0;17;12;29;0.0005354340011202;0;2;2;2;2;2;2;;;;;;;1.0;0.0;3.0
ACADEMIA;MT;Rondonópolis;-16.4673;-54.6372;5107602.0;19;16;48;0.0005352212376288;1;1;0;0;1;0;1;;;;0.0;0.0;0.0;;;
RIO NEGRO;AM;Manaus;-3.11866;-60.0212;1302603.0;16;9;17;0.0005338703054307;0;0;1;1;0;3;7;0.0;1.0;1.0;;;;;;
CARAJÁS;PA;Parauapebas;-6.06781;-49.9037;1505536.0;7;15;23;0.0005332953453435;0;0;3;3;3;1;0;1.0;0.0;0.0;;;;;;
CANINDÉ;SE;Canindé de São Francisco;-9.6436;-37.7886;2801207.0;18;6;26;0.0005325036510544;0;2;2;2;2;2;2;;;;;;;1.0;0.0;3.0
GUARULHOS;SP;Guarulhos;-23.4538;-46.5333;3518800.0;16;14;28;0.0005311188296103;1;1;0;0;5;5;5;;;;0.0;2.0;2.0;;;
APUCARANA SPORTS;PR;Apucarana;-23.55;-51.4635;4101408.0;17;13;19;0.0005308185314886;1;1;0;0;1;0;1;;;;0.0;0.0;0.0;;;
TAPAJÓS;PA;Santarém;-2.43849;-54.6996;1506807.0;8;12;24;0.000530174423591;0;0;3;3;3;1;0;1.0;0.0;3.0;;;;;;
TUPAN;MA;São Luís;-2.53874;-44.2825;2111300.0;11;7;13;0.0005300740908889;0;0;3;3;3;1;0;1.0;0.0;0.0;;;;;;
CERRADO;GO;Aparecida de Goiânia;-16.8198;-49.2469;5201405.0;12;13;17;0.0005299079828086;1;1;0;0;1;0;3;;;;0.0;0.0;3.0;;;
NÁUTICO;RR;Caracaraí;1.82766;-61.1304;1400209.0;16;12;32;0.0005290962458107;0;0;1;1;0;3;7;0.0;1.0;1.0;;;;;;
AVENIDA;RS;Santa Cruz do Sul;-29.722;-52.4343;4316808.0;38;62;74;0.0005287350255114;1;1;0;4;4;4;4;;;;1.0;1.0;1.0;;;
ESPORTE;PB;Paulista;-6.59138;-37.6185;2510907.0;17;6;7;0.0005286578888045;0;2;2;2;2;2;2;;;;;;;0.0;1.0;0.0
AFOGADOS;PE;Afogados da Ingazeira;-7.74312;-37.631;2600104.0;13;9;23;0.000526219038617;0;2;2;2;2;2;2;;;;;;;0.0;1.0;0.0
ARUKO;PR;Maringá;-23.4205;-51.9333;4115200.0;22;8;10;0.000525154087021;1;1;0;0;1;0;1;;;;0.0;0.0;0.0;;;
CAAC BRASIL;RJ;Rio de Janeiro;-22.9129;-43.2003;3304557.0;18;6;33;0.000522961622265;1;1;0;0;5;5;5;;;;0.0;2.0;2.0;;;
BOQUINHENSE;SE;Boquim;-11.1397;-37.6195;2800670.0;17;13;20;0.0005224610533493;0;2;2;2;2;2;2;;;;;;;1.0;0.0;3.0
AMÉRICA;PE;Recife;-8.04666;-34.8771;2611606.0;18;9;8;0.0005205453682756;0;2;2;2;2;2;2;;;;;;;0.0;2.0;2.0
ATLÉTICO CARIOCA;RJ;São Gonçalo;-22.8268;-43.0634;3304904.0;14;10;13;0.0005191251005488;1;1;0;0;5;5;5;;;;0.0;2.0;2.0;;;
BATEL;PR;Guarapuava;-25.3902;-51.4623;4109401.0;19;19;29;0.000518475185656;1;1;0;4;4;4;4;;;;1.0;1.0;1.0;;;
ITARARÉ;SP;Itararé;-24.1114;-49.3331;3523206.0;11;11;8;0.0005181755182478;1;1;0;4;4;4;4;;;;1.0;1.0;1.0;;;
TUPÃ;SP;Tupã;-21.9347;-50.5136;3555000.0;18;8;17;0.000518094534339;1;1;0;0;1;0;1;;;;0.0;0.0;0.0;;;
ATLHETIC;MG;São João del-Rei;-21.1353;-44.2614;3162500.0;20;6;7;0.0005179128460161;1;1;0;0;5;5;5;;;;0.0;2.0;2.0;;;
GUARANY DE BAGÉ;RS;Bagé;-31.3297;-54.0999;4301602.0;16;19;32;0.000517035626448;1;1;0;4;4;4;4;;;;1.0;1.0;1.0;;;
ECUS;SP;Suzano;-23.5333;-46.3106;3552502.0;21;12;29;0.0005169612162328;1;1;0;0;5;5;5;;;;0.0;2.0;2.0;;;
GAVIÃO KYIKATEJÊ;PA;Bom Jesus do Tocantins;-5.0424;-48.6047;1501576.0;8;10;19;0.0005149027790263;0;0;3;3;3;1;0;1.0;0.0;0.0;;;;;;
CÁCERES;MT;Cáceres;-16.0764;-57.6818;5102504.0;14;11;14;0.0005146730281769;1;1;0;0;1;0;1;;;;0.0;0.0;0.0;;;
NOVOPERÁRIO;MS;Sidrolândia;-20.9317;-54.9614;5007901.0;11;14;34;0.0005121858801223;1;1;0;0;1;0;1;;;;0.0;0.0;0.0;;;
DESPORTIVO ALIANÇA;AL;Barra de Santo Antônio;-9.405;-35.50694;2700508.0;23;13;37;0.0005118492759785;0;2;2;2;2;2;2;;;;;;;1.0;0.0;3.0
CERES;RJ;Rio de Janeiro;-22.9129;-43.2003;3304557.0;15;9;16;0.0005103349044798;1;1;0;0;5;5;5;;;;0.0;2.0;2.0;;;
SANTA MARIA;DF;Brasília;-16.0167;-48.0167;5300108.0;12;6;24;0.00051013887487;1;1;0;0;1;0;3;;;;0.0;0.0;3.0;;;
JARAGUÁ;GO;Jaraguá;-15.7529;-49.3344;5211800.0;15;11;43;0.0005099058141843;1;1;0;0;1;0;3;;;;0.0;0.0;3.0;;;
COMERCIAL;PI;Campo Maior;-4.8217;-42.1641;2202208.0;15;6;23;0.0005087257067017;0;0;3;3;3;1;0;1.0;0.0;0.0;;;;;;
IGREJINHA;RS;Igrejinha;-29.5693;-50.7919;4310108.0;10;4;6;0.0005086484535795;1;1;0;4;4;4;4;;;;1.0;1.0;1.0;;;
ATLÉTICO CATARINENSE;SC;São José;-27.6136;-48.6366;4216602.0;15;18;42;0.0005084701150013;1;1;0;4;4;4;4;;;;1.0;1.0;1.0;;;
INTER DE MINAS;MG;Andradas;-22.0695;-46.5724;3102605.0;13;11;11;0.0005082430481757;1;1;0;0;5;5;5;;;;0.0;2.0;2.0;;;
SÃO PAULO;AP;Macapá;0.034934;-51.0694;1600303.0;10;10;21;0.0005064897862318;0;0;3;3;3;1;0;1.0;0.0;3.0;;;;;;
PRUDENTÓPOLIS;PR;Prudentópolis;-25.2111;-50.9754;4120606.0;19;19;21;0.0005060785276592;1;1;0;4;4;4;4;;;;1.0;1.0;1.0;;;
SAPUCAIENSE;RS;Sapucaia do Sul;-29.8276;-51.145;4320008.0;25;8;35;0.0005038206691226;1;1;0;4;4;4;4;;;;1.0;1.0;1.0;;;
JAGUARÉ;ES;Jaguaré;-18.907;-40.0759;3203056.0;20;12;6;0.0005028037564489;1;1;0;0;5;5;5;;;;0.0;2.0;2.0;;;
ARARUAMA;RJ;Araruama;-22.8697;-42.3326;3300209.0;14;26;22;0.0005024783924653;1;1;0;0;5;5;5;;;;0.0;2.0;2.0;;;
AMPARO;SP;Amparo;-22.7033;-46.7644;3501905.0;13;7;16;0.0005012162169815;1;1;0;0;5;5;5;;;;0.0;2.0;2.0;;;
PRINCESA DO SOLIMÕES;AM;Manacapuru;-3.29066;-60.6216;1302504.0;11;16;7;0.0005001921217673;0;0;1;1;0;3;7;0.0;1.0;1.0;;;;;;
PRIMAVERA;MT;Primavera do Leste;-15.5591;-54.2982;5107042.0;17;24;21;0.0004988249749427;1;1;0;0;1;0;1;;;;0.0;0.0;0.0;;;
URUAÇU;GO;Uruaçu;-14.5238;-49.1396;5221601.0;12;8;8;0.0004981343489227;1;1;0;0;1;0;3;;;;0.0;0.0;3.0;;;
FF SPORT;AL;Viçosa;-9.3697;-36.2417;2709400.0;14;7;21;0.0004977170918536;0;2;2;2;2;2;2;;;;;;;1.0;0.0;3.0
PORTUGUESA;AP;Macapá;-0.0383;-51.0632;1600303.0;8;3;4;0.0004973978630539;0;0;3;3;3;1;0;1.0;0.0;3.0;;;;;;
CONCORDIA ATLÉTICO CLUBE;SC;Tubarão;-28.4713;-49.0144;4218707.0;15;13;15;0.0004971081408424;1;1;0;4;4;4;4;;;;1.0;1.0;1.0;;;
BOM JESUS;GO;Bom Jesus de Goiás;-18.2153;-49.9419;5203500.0;9;2;0;0.0004968863844333;1;1;0;0;1;0;3;;;;0.0;0.0;3.0;;;
PETRÓPOLIS;RJ;Teresópolis;-22.4165;-42.9752;3305802.0;13;18;22;0.0004956841098882;1;1;0;0;5;5;5;;;;0.0;2.0;2.0;;;
GENUS;RO;Porto Velho;-8.7619;-63.9039;1100205.0;9;12;27;0.0004952642951213;0;0;1;1;0;6;6;0.0;2.0;2.0;;;;;;
VILHENENSE;RO;Vilhena;-12.7502;-60.1488;1100304.0;8;12;10;0.0004948554785313;0;0;1;1;0;6;6;0.0;2.0;2.0;;;;;;
NACIONAL UBERABA;MG;Uberaba;-19.7472;-47.9381;3170107.0;10;6;13;0.0004948539122028;1;1;0;0;1;0;3;;;;0.0;0.0;3.0;;;
POÇOS DE CALDAS;MG;Caldas;-21.9183;-46.3843;3110301.0;11;11;21;0.0004944159541208;1;1;0;0;5;5;5;;;;0.0;2.0;2.0;;;
VERA CRUZ;RJ;Angra dos Reis;-23.0011;-44.3196;3300100.0;17;10;19;0.0004937832670754;1;1;0;0;5;5;5;;;;0.0;2.0;2.0;;;
PORTO VELHO;RO;Porto Velho;-8.76077;-63.8999;1100205.0;11;12;16;0.0004917195344471;0;0;1;1;0;6;6;0.0;2.0;2.0;;;;;;
CRISTAL;AP;Macapá;0.034934;-51.0694;1600303.0;7;4;3;0.0004909625058287;0;0;3;3;3;1;0;1.0;0.0;3.0;;;;;;
FLUMINENSE DE JOINVILLE;SC;Joinville;-26.3045;-48.8487;4209102.0;17;11;33;0.0004888272933875;1;1;0;4;4;4;4;;;;1.0;1.0;1.0;;;
QUIXADÁ;CE;Quixadá;-4.9663;-39.0155;2311306.0;19;6;6;0.000488642835512;0;2;2;2;2;2;2;;;;;;;0.0;1.0;0.0
QUEIMADENSE;PB;Queimadas;-7.3583;-35.8953;2512509.0;14;11;22;0.0004872348656342;0;2;2;2;2;2;2;;;;;;;0.0;2.0;2.0
CRATEÚS;CE;Crateús;-5.16768;-40.6536;2304103.0;14;11;12;0.0004868208761013;0;0;3;3;3;1;0;1.0;0.0;0.0;;;;;;
BATATAIS;SP;Batatais;-20.8929;-47.5921;3505906.0;14;18;36;0.0004865856045556;1;1;0;0;1;0;3;;;;0.0;0.0;3.0;;;
DESPORTIVA ARACAJU;SE;Aracaju;-10.9091;-37.0677;2800308.0;18;2;1;0.0004862624696525;0;2;2;2;2;2;2;;;;;;;1.0;0.0;3.0
TIGRES DO BRASIL;RJ;Duque de Caxias;-22.7858;-43.3049;3301702.0;14;14;19;0.0004801498766262;1;1;0;0;5;5;5;;;;0.0;2.0;2.0;;;
UNAÍ;MG;Paracatu;-17.2252;-46.8711;3147006.0;9;7;13;0.0004786391965864;1;1;0;0;1;0;3;;;;0.0;0.0;3.0;;;
SETE DE SETEMBRO;PE;Garanhuns;-8.88243;-36.4966;2606002.0;10;11;19;0.0004785314690699;0;2;2;2;2;2;2;;;;;;;1.0;0.0;3.0
PINHEIROS;ES;Pinheiros;-18.4141;-40.2171;3204104.0;26;11;58;0.000477294154687;1;1;0;0;5;5;5;;;;0.0;2.0;2.0;;;
ATLÉTICO PATROCINENSE;MG;Patrocínio;-18.9379;-46.9934;3148103.0;13;24;37;0.0004763585538825;1;1;0;0;1;0;3;;;;0.0;0.0;3.0;;;
BARÉ;RR;Boa Vista;2.82384;-60.6753;1400100.0;16;9;24;0.0004754033614531;0;0;1;1;0;3;7;0.0;1.0;1.0;;;;;;
SPARTA;TO;Araguaína;-7.1925;-48.2078;1702109.0;8;5;9;0.0004732281931355;0;0;3;3;3;1;0;1.0;0.0;0.0;;;;;;
CHAPADINHA;MA;Chapadinha;-3.73875;-43.3538;2103208.0;13;8;18;0.0004719296984671;0;0;3;3;3;1;0;1.0;0.0;0.0;;;;;;
GRÊMIO PAGUE MENOS;CE;Fortaleza;-3.71664;-38.5423;2304400.0;11;9;8;0.0004705269382622;0;2;2;2;2;2;2;;;;;;;0.0;1.0;0.0
AT. ITAPEMIRIM;ES;Itapemirim;-21.0095;-40.8307;3202801.0;16;9;32;0.0004669583693415;1;1;0;0;5;5;5;;;;0.0;2.0;2.0;;;
ARAUCÁRIA;PR;Araucária;-25.5917;-49.4103;4101804.0;19;12;30;0.000466514398923;1;1;0;4;4;4;4;;;;1.0;1.0;1.0;;;
BARRA MANSA;RJ;Barra Mansa;-22.5481;-44.1752;3300407.0;12;16;31;0.0004664504777346;1;1;0;0;5;5;5;;;;0.0;2.0;2.0;;;
VERÊ;PR;Verê;-25.8772;-52.9051;4128609.0;15;13;18;0.0004660567766128;1;1;0;4;4;4;4;;;;1.0;1.0;1.0;;;
VIANA;MA;Viana;-3.2208;-45.0022;2112805.0;11;5;20;0.0004657897692404;0;0;3;3;3;1;0;1.0;0.0;0.0;;;;;;
JAGUAR;PE;Jaboatão dos Guararapes;-8.1139;-35.0153;2607901.0;15;5;18;0.0004642068369806;0;2;2;2;2;2;2;;;;;;;0.0;2.0;2.0
ATLÉTICO RORAIMA;RR;Boa Vista;2.82384;-60.6753;1400100.0;13;10;25;0.0004636703757755;0;0;1;1;0;3;7;0.0;1.0;1.0;;;;;;
BOCA JÚNIOR;SE;Cristinápolis;-11.4744;-37.7553;2801900.0;13;9;24;0.000463357687137;0;2;2;2;2;2;2;;;;;;;1.0;0.0;3.0
UNIÃO CENTRAL;RJ;Rio de Janeiro;-22.9129;-43.2003;3304557.0;16;11;17;0.0004627243813713;1;1;0;0;5;5;5;;;;0.0;2.0;2.0;;;
UNIRB;BA;Alagoinhas;-12.1335;-38.4208;2900702.0;9;16;8;0.0004617283113293;0;2;2;2;2;2;2;;;;;;;1.0;0.0;1.0
SÃO JOSÉ;AP;Macapá;0.034934;-51.0694;1600303.0;5;1;1;0.0004612684688553;0;0;3;3;3;1;0;1.0;0.0;3.0;;;;;;
PEDREIRA;PA;Belém;-1.4554;-48.4898;1501402.0;7;11;13;0.0004595598506121;0;0;3;3;3;1;0;1.0;0.0;3.0;;;;;;
ALVORADA;AM;Manaus;-3.11866;-60.0212;1302603.0;14;4;12;0.0004589930112033;0;0;1;1;0;3;7;0.0;1.0;1.0;;;;;;
SOCORRENSE;SE;Nossa Senhora do Socorro;-10.8468;-37.1231;2804805.0;16;10;19;0.0004583947893848;0;2;2;2;2;2;2;;;;;;;1.0;0.0;3.0
MAGEENSE;RJ;Magé;-22.6517;-43.0425;3302502.0;13;6;38;0.0004578887620298;1;1;0;0;5;5;5;;;;0.0;2.0;2.0;;;
LUMINENSE;MA;Paço do Lumiar;-2.5283;-44.1133;2107508.0;9;8;10;0.0004570681711648;0;0;3;3;3;1;0;1.0;0.0;0.0;;;;;;
ROLÂNDIA;PR;Rolândia;-23.3101;-51.3659;4122404.0;23;9;29;0.000456930231831;1;1;0;0;1;0;1;;;;0.0;0.0;0.0;;;
TIROL;CE;Fortaleza;-3.7319;-38.5267;2304400.0;13;8;7;0.0004540978929997;0;2;2;2;2;2;2;;;;;;;0.0;1.0;0.0
PICUIENSE;PB;Picuí;-6.50845;-36.3497;2511400.0;11;9;25;0.0004531831471695;0;2;2;2;2;2;2;;;;;;;0.0;2.0;2.0
SANTANA;AP;Santana;-0.0583;-51.1817;1600600.0;8;8;30;0.0004495331348729;0;0;3;3;3;1;0;1.0;0.0;3.0;;;;;;
BOSTON CITY BRASIL;MG;Varginha;-21.5556;-45.4364;3170701.0;8;8;20;0.0004494158604046;1;1;0;0;5;5;5;;;;0.0;2.0;2.0;;;
CLIPER;AM;Manaus;-3.11866;-60.0212;1302603.0;10;11;18;0.0004481074438848;0;0;1;1;0;3;7;0.0;1.0;1.0;;;;;;
SPORT BELÉM;PA;Belém;-1.4554;-48.4898;1501402.0;11;2;16;0.0004476307414781;0;0;3;3;3;1;0;1.0;0.0;3.0;;;;;;
RIOPARDENSE;RS;Rio Grande;-32.0349;-52.1071;4315602.0;8;16;31;0.0004473328018227;1;1;0;4;4;4;4;;;;1.0;1.0;1.0;;;
VISÃO CELESTE;RN;Natal;-5.79357;-35.1986;2408102.0;11;5;15;0.0004470002061552;0;2;2;2;2;2;2;;;;;;;0.0;2.0;2.0
MAZAGÃO;AP;Mazagão;-0.11336;-51.2891;1600402.0;4;1;1;0.0004437850724643;0;0;3;3;3;1;0;1.0;0.0;3.0;;;;;;
PRÓSPERA;SC;Criciúma;-28.6723;-49.3729;4204608.0;38;24;86;0.0004420290573081;1;1;0;4;4;4;4;;;;1.0;1.0;1.0;;;
PARAENSE;PA;Marituba;-1.36002;-48.3421;1504422.0;10;7;14;0.0004420154645509;0;0;3;3;3;1;0;1.0;0.0;3.0;;;;;;
AMADENSE;SE;Tobias Barreto;-11.1798;-37.9995;2807402.0;14;8;25;0.0004419997359405;0;2;2;2;2;2;2;;;;;;;1.0;0.0;3.0
UNIÃO ATLÉTICO CLUBE;TO;Araguaína;-7.1925;-48.2078;1702109.0;7;4;6;0.000441815133505;0;0;3;3;3;1;0;1.0;0.0;0.0;;;;;;
NOVO HORIZONTE;RS;Esteio;-29.8519;-51.1825;4307708.0;12;12;37;0.0004391203563678;1;1;0;4;4;4;4;;;;1.0;1.0;1.0;;;
GRÊMIO MARINGÁ;PR;Maringá;-23.4205;-51.9333;4115200.0;16;8;16;0.0004373041224532;1;1;0;0;1;0;1;;;;0.0;0.0;0.0;;;
GLÓRIA;RS;Vacaria;-28.5079;-50.9418;4322509.0;15;3;9;0.0004352609853472;1;1;0;4;4;4;4;;;;1.0;1.0;1.0;;;
GALO MARINGÁ;PR;Maringá;-23.4205;-51.9333;4115200.0;12;8;6;0.0004345457296706;1;1;0;0;1;0;1;;;;0.0;0.0;0.0;;;
NOVA CONQUISTA;TO;Paraíso do Tocantins;-10.1753;-48.8839;1716109.0;5;9;9;0.0004326290712687;0;0;3;3;3;1;0;1.0;0.0;0.0;;;;;;
GARIBALDI;RS;Garibaldi;-29.2564;-51.5239;4308607.0;13;3;19;0.0004305674305029;1;1;0;4;4;4;4;;;;1.0;1.0;1.0;;;
GUARANY;CE;Fortaleza;-3.71664;-38.5423;2304400.0;12;8;17;0.0004284234141918;0;2;2;2;2;2;2;;;;;;;0.0;1.0;0.0
VILA RICA;PA;Belém;-1.4554;-48.4898;1501402.0;8;6;17;0.0004263357876077;0;0;3;3;3;1;0;1.0;0.0;3.0;;;;;;
SPORT ATIBAIA;SP;Atibaia;-23.1171;-46.5563;3504107.0;12;16;15;0.0004246232996177;1;1;0;0;5;5;5;;;;0.0;2.0;2.0;;;
SANTARRITENSE;MG;Santa Rita do Sapucaí;-22.2461;-45.7034;3159605.0;8;10;9;0.0004229388691945;1;1;0;0;5;5;5;;;;0.0;2.0;2.0;;;
ASSISENSE;SP;Assis;-22.66;-50.4183;3504008.0;11;9;22;0.0004215841254571;1;1;0;0;1;0;1;;;;0.0;0.0;0.0;;;
PORTUGUESA;MS;Campo Grande;-20.4697;-54.6201;5002704.0;11;11;8;0.0004212071766171;1;1;0;0;1;0;1;;;;0.0;0.0;0.0;;;
OSVALDO CRUZ;SP;Osvaldo Cruz;-21.7961;-50.8839;3534401.0;9;9;13;0.0004192058098708;1;1;0;0;1;0;1;;;;0.0;0.0;0.0;;;
JACOBINENSE;BA;Jacobina;-11.1812;-40.5117;2917508.0;9;6;18;0.0004185133340322;0;2;2;2;2;2;2;;;;;;;1.0;0.0;1.0
RIO GRANDE;RN;Natal;-5.79357;-35.1986;2408102.0;5;2;3;0.0004154994667792;0;2;2;2;2;2;2;;;;;;;0.0;2.0;2.0
ARAGUAIA;MT;Alto Araguaia;-17.3153;-53.2181;5100300.0;12;9;37;0.0004154534758763;1;1;0;0;1;0;1;;;;0.0;0.0;0.0;;;
UNIÃO MOGI;SP;Mogi das Cruzes;-23.5208;-46.1854;3530607.0;13;16;29;0.0004132732058972;1;1;0;0;5;5;5;;;;0.0;2.0;2.0;;;
UNIÃO BELTRÃO;PR;Santo Antônio da Platina;-23.2959;-50.0815;4124103.0;13;8;28;0.0004127688269282;1;1;0;0;1;0;1;;;;0.0;0.0;0.0;;;
GRÊMIO S23;RS;Porto Alegre;-29.9740266;-51.1949496;4314902.0;15;7;6;0.0004121211502117;1;1;0;4;4;4;4;;;;1.0;1.0;1.0;;;
POMBAL;PB;Pombal;-6.7725;-37.8011;2512103.0;11;5;14;0.0004118962829408;0;2;2;2;2;2;2;;;;;;;0.0;1.0;0.0
OLÍMPIA;SP;Olímpia;-20.7366;-48.9106;3533908.0;10;18;38;0.0004118425532987;1;1;0;0;1;0;3;;;;0.0;0.0;3.0;;;
RED BULL BRASIL;SP;Ribeirão Preto;-21.1699;-47.8099;3543402.0;15;18;32;0.0004106869851626;1;1;0;0;1;0;3;;;;0.0;0.0;3.0;;;
VASCO DA GAMA;AC;Rio Branco;-9.974;-67.8076;5107206.0;14;6;23;0.0004096655275319;0;0;1;1;0;6;6;0.0;2.0;2.0;;;;;;
PALMEIRA DE GOIANINHA;RN;Goianinha;-6.26486;-35.1943;2404200.0;13;15;32;0.000406329595018;0;2;2;2;2;2;2;;;;;;;0.0;2.0;2.0
BOTAFOGO;BA;Salvador;-12.9718;-38.5011;2927408.0;8;5;6;0.0004062781873055;0;2;2;2;2;2;2;;;;;;;1.0;0.0;1.0
OPERÁRIO CEOV;MT;Várzea Grande;-15.65;-56.1325;5108402.0;9;5;6;0.0004040317187499;1;1;0;0;1;0;1;;;;0.0;0.0;0.0;;;
IGACI;AL;Igaci;-9.5372;-36.6321;2703106.0;8;3;2;0.0004032828149224;0;2;2;2;2;2;2;;;;;;;1.0;0.0;3.0
SPARTAX;PB;João Pessoa;-7.115;-34.8631;2507507.0;10;9;16;0.0004020803208332;0;2;2;2;2;2;2;;;;;;;0.0;2.0;2.0
CTE COLATINA;ES;Colatina;-19.5493;-40.6269;3201506.0;14;18;39;0.0004018001810163;1;1;0;0;5;5;5;;;;0.0;2.0;2.0;;;
SANTA CRUZ RIACHUELO;SE;Estância;-11.2659;-37.4484;2802106.0;13;5;27;0.0003994916480474;0;2;2;2;2;2;2;;;;;;;1.0;0.0;3.0
BARCELONA;RJ;Rio de Janeiro;-22.9129;-43.2003;3304557.0;12;12;33;0.0003994599252597;1;1;0;0;5;5;5;;;;0.0;2.0;2.0;;;
SÃO LUÍS;MA;São Luís;-2.53874;-44.2825;2111300.0;10;5;11;0.0003993966762212;0;0;3;3;3;1;0;1.0;0.0;0.0;;;;;;
IRATY;PR;Irati;-25.4697;-50.6493;4110706.0;17;9;22;0.0003966091450014;1;1;0;4;4;4;4;;;;1.0;1.0;1.0;;;
BELO JARDIM;PE;Belo Jardim;-8.3313;-36.4258;2601706.0;9;7;17;0.000394978337028;0;2;2;2;2;2;2;;;;;;;0.0;2.0;2.0
FARROUPILHA;RS;Pelotas;-31.7649;-52.3371;4314407.0;8;12;21;0.0003947749375468;1;1;0;4;4;4;4;;;;1.0;1.0;1.0;;;
DIMENSÃO SAÚDE;AL;Capela;-9.41122;-36.0736;2701309.0;17;4;25;0.0003946436281611;0;2;2;2;2;2;2;;;;;;;1.0;0.0;3.0
LEGIÃO;DF;Brasília;-15.7795;-47.9297;5300108.0;11;6;21;0.0003937754898863;1;1;0;0;1;0;3;;;;0.0;0.0;3.0;;;
RED BULL BRAGANTINO II;SP;Bragança Paulista;-22.9527;-46.5419;3507605.0;17;7;11;0.0003929870681651;1;1;0;0;5;5;5;;;;0.0;2.0;2.0;;;
JUVENTUDE B;RS;Caxias do Sul;-29.1629;-51.1792;4305108.0;11;8;20;0.0003921415834932;1;1;0;4;4;4;4;;;;1.0;1.0;1.0;;;
SPORT CAPIXABA;ES;Nova Venécia;-18.715;-40.4053;3203908.0;19;14;71;0.0003903656160639;1;1;0;0;5;5;5;;;;0.0;2.0;2.0;;;
LEMENSE;SP;Leme;-22.1809;-47.3841;3526704.0;11;15;28;0.0003902816740945;1;1;0;0;5;5;5;;;;0.0;2.0;2.0;;;
ITABERAÍ;GO;Goiás;-15.9333;-50.14;5208905.0;7;3;8;0.0003892587913471;1;1;0;0;1;0;3;;;;0.0;0.0;3.0;;;
ARAPONGAS;PR;Arapongas;-23.4153;-51.4259;4101507.0;18;10;18;0.0003884866752854;1;1;0;0;1;0;1;;;;0.0;0.0;0.0;;;
FLAMENGO;PE;Recife;-8.04666;-34.8771;2611606.0;14;1;13;0.0003882913669595;0;2;2;2;2;2;2;;;;;;;0.0;2.0;2.0
FORÇA JOVEM AQUIDABÃ;SE;Aquidabã;-10.2817;-37.0194;2800100.0;11;7;22;0.0003864056205193;0;2;2;2;2;2;2;;;;;;;1.0;0.0;3.0
JUAZEIRO;BA;Juazeiro;-9.41622;-40.5033;2918407.0;7;10;5;0.0003847363147304;0;2;2;2;2;2;2;;;;;;;1.0;0.0;1.0
RIOVERDENSE;GO;Rio Verde;-17.7923;-50.9192;5218805.0;7;5;29;0.0003843164377615;1;1;0;0;1;0;3;;;;0.0;0.0;3.0;;;
SÃO JOSÉ;MA;São Luís;-2.53874;-44.2825;2111300.0;8;10;24;0.0003829415171248;0;0;3;3;3;1;0;1.0;0.0;0.0;;;;;;
COIMBRA-MG B;MG;Belo Horizonte;-19.9102;-43.9266;3106200.0;7;8;2;0.0003825443393603;1;1;0;0;5;5;5;;;;0.0;2.0;2.0;;;
CEO;AL;Maceió;-9.66599;-35.735;2704302.0;15;11;39;0.0003823937634169;0;2;2;2;2;2;2;;;;;;;1.0;0.0;3.0
SÃO MATEUS;ES;São Mateus;-18.7214;-39.8579;3204906.0;10;13;44;0.0003817731621957;1;1;0;0;5;5;5;;;;0.0;2.0;2.0;;;
PLÁCIDO DE CASTRO;AC;Plácido de Castro;-10.2806;-67.1371;1200385.0;13;8;24;0.0003813372577268;0;0;1;1;0;6;6;0.0;2.0;2.0;;;;;;
SANTO ÂNGELO;RS;Santo Ângelo;-28.3001;-54.2668;4317509.0;7;6;31;0.0003804902824088;1;1;0;4;4;4;4;;;;1.0;1.0;1.0;;;
SETE DE JUNHO;SE;Tobias Barreto;-11.1798;-37.9995;2807402.0;12;11;17;0.0003802622981797;0;2;2;2;2;2;2;;;;;;;1.0;0.0;3.0
UNIÃO;MS;Bandeirantes;-19.9275;-54.3585;5001508.0;8;7;37;0.0003802449930771;1;1;0;0;1;0;1;;;;0.0;0.0;0.0;;;
GUARANY;RS;Cruz Alta;-28.645;-53.6048;4306106.0;10;6;10;0.000378696077317;1;1;0;4;4;4;4;;;;1.0;1.0;1.0;;;
ADESG;AC;Senador Guiomard;-10.1497;-67.7362;1200450.0;11;9;8;0.0003786806162549;0;0;1;1;0;6;6;0.0;2.0;2.0;;;;;;
UNIÃO;CE;Fortaleza;-3.71664;-38.5423;2304400.0;8;7;16;0.000378577313458;0;2;2;2;2;2;2;;;;;;;0.0;1.0;0.0
REAL;RR;São Luiz;1.01019;-60.0419;1400605.0;10;9;10;0.000378488135895;0;0;1;1;0;3;7;0.0;1.0;1.0;;;;;;
SERRANENSE;MG;Betim;-19.9668;-44.2008;3106705.0;9;9;30;0.000377359573592;1;1;0;0;5;5;5;;;;0.0;2.0;2.0;;;
VILLA REAL;MG;Nova Lima;-19.9758;-43.8509;3144805.0;12;4;12;0.0003766025586087;1;1;0;0;5;5;5;;;;0.0;2.0;2.0;;;
PORTO;BA;Porto Seguro;-16.4497;-39.0641;2925303.0;8;7;7;0.0003747718801466;1;1;0;0;5;5;5;;;;0.0;2.0;2.0;;;
FERNANDÓPOLIS;SP;Fernandópolis;-20.2806;-50.2471;3515509.0;8;8;27;0.0003745143569539;1;1;0;0;1;0;3;;;;0.0;0.0;3.0;;;
SOCORRO;SE;Nossa Senhora do Socorro;-10.8468;-37.1231;2804805.0;10;12;20;0.0003740134136647;0;2;2;2;2;2;2;;;;;;;1.0;0.0;3.0
SORRISO;MT;Sorriso;-12.5425;-55.7211;5107925.0;15;21;23;0.0003734346938483;1;1;0;0;1;0;1;;;;0.0;0.0;0.0;;;
IMBITUBA;SC;Imbituba;-28.2284;-48.6659;4207304.0;10;6;12;0.000372696115613;1;1;0;4;4;4;4;;;;1.0;1.0;1.0;;;
ITABORAÍ PROFUTE;RJ;Itaboraí;-22.7565;-42.8639;3301900.0;12;3;25;0.000372146579737;1;1;0;0;5;5;5;;;;0.0;2.0;2.0;;;
RIOSTRENSE;RJ;Três Rios;-22.1165;-43.2185;3306008.0;11;3;17;0.0003717490224217;1;1;0;0;5;5;5;;;;0.0;2.0;2.0;;;
PARNAMIRIM;RN;Parnamirim;-5.9158;-35.2628;2403251.0;6;3;35;0.0003713217758229;0;2;2;2;2;2;2;;;;;;;0.0;2.0;2.0
NOVO ESPORTE;MG;Itabirinha;-18.5131;-41.3417;3131701.0;9;5;7;0.0003706374433554;1;1;0;0;5;5;5;;;;0.0;2.0;2.0;;;
PORTUGUESA LONDRINENSE;PR;Londrina;-23.304;-51.1691;4113700.0;14;9;29;0.0003702783827666;1;1;0;0;1;0;1;;;;0.0;0.0;0.0;;;
ATLÉTICO PERNAMBUCANO;PE;Recife;-8.04666;-34.8771;2611606.0;10;7;20;0.0003698702102667;0;2;2;2;2;2;2;;;;;;;0.0;2.0;2.0
1° DE MAIO;PE;Petrolina;-9.38866;-40.5027;2611101.0;6;10;17;0.0003691111357371;0;2;2;2;2;2;2;;;;;;;1.0;0.0;1.0
JUVENTUS;SC;Jaraguá do Sul;-26.4851;-49.0713;4208906.0;11;19;18;0.0003677716066222;1;1;0;4;4;4;4;;;;1.0;1.0;1.0;;;
CAMPO MOURÃO;PR;Campo Mourão;-24.0463;-52.378;4104303.0;14;12;16;0.000367316951663;1;1;0;0;1;0;1;;;;0.0;0.0;0.0;;;
DOCE MEL;BA;Ipiaú;-14.1375;-39.7375;2913903.0;5;13;18;0.0003659953600019;0;2;2;2;2;2;2;;;;;;;1.0;0.0;1.0
FLAMENGO;SE;Nossa Senhora das Dores;-10.4854;-37.1963;2804607.0;12;3;14;0.000365423337064;0;2;2;2;2;2;2;;;;;;;1.0;0.0;3.0
MONTE RORAIMA;RR;Boa Vista;2.82384;-60.6753;1400100.0;9;6;4;0.0003644978778869;0;0;1;1;0;3;7;0.0;1.0;1.0;;;;;;
CAMBÉ;PR;Cambará;-23.0423;-50.0753;4103602.0;8;12;34;0.0003622918338156;1;1;0;0;1;0;1;;;;0.0;0.0;0.0;;;
ATLÉTICO ITAJAÍ;SC;Ibirama;-27.0547;-49.5193;4206900.0;14;4;7;0.0003621012309672;1;1;0;4;4;4;4;;;;1.0;1.0;1.0;;;
PANTANAL;MS;Ladário;-19.0089;-57.5973;5005202.0;7;8;3;0.0003613000412866;1;1;0;0;1;0;1;;;;0.0;0.0;0.0;;;
MIGUELENSE;AL;São Miguel dos Campos;-9.7826;-36.0886;2708600.0;9;4;33;0.0003593675059515;0;2;2;2;2;2;2;;;;;;;1.0;0.0;3.0
FORMOSA;GO;Formosa;-15.5333;-47.3333;5208004.0;7;1;13;0.000358185901364;1;1;0;0;1;0;3;;;;0.0;0.0;3.0;;;
ARUC;DF;Cruzeiro;-15.7934;-47.9406;5300108.0;8;4;10;0.0003581475119699;1;1;0;0;1;0;3;;;;0.0;0.0;3.0;;;
PERILIMA;PB;Campina Grande;-7.22196;-35.8731;2504009.0;6;8;12;0.0003579101496523;0;2;2;2;2;2;2;;;;;;;0.0;2.0;2.0
SESP SAMAMBAENSE;SE;Tobias Barreto;-11.1798;-37.9995;2807402.0;9;4;15;0.0003569295201264;0;2;2;2;2;2;2;;;;;;;1.0;0.0;3.0
BOTAFOGO PB;PB;João Pessoa;-7.11509;-34.8641;2507507.0;9;7;16;0.0003561832459349;0;2;2;2;2;2;2;;;;;;;0.0;2.0;2.0
LINHARES;ES;Linhares;-19.3946;-40.0643;3203205.0;17;23;73;0.0003531099298186;1;1;0;0;5;5;5;;;;0.0;2.0;2.0;;;
FERROVIÁRIO DO CABO;PE;Bezerros;-8.2328;-35.796;2601904.0;6;12;18;0.0003520429208844;0;2;2;2;2;2;2;;;;;;;0.0;2.0;2.0
GRÊMIO B;RS;Pelotas;-31.7649;-52.3371;4314407.0;14;4;11;0.0003517550451239;1;1;0;4;4;4;4;;;;1.0;1.0;1.0;;;
GRÊMIO VALPARAÍSO;GO;Valparaíso de Goiás;-16.0683;-47.9767;5221858.0;9;2;14;0.0003516351425163;1;1;0;0;1;0;3;;;;0.0;0.0;3.0;;;
TIRADENTES;PI;Teresina;-5.0919;-42.8033;2211001.0;7;6;12;0.0003514538297132;0;0;3;3;3;1;0;1.0;0.0;0.0;;;;;;
PROPRIÁ;SE;Propriá;-10.2138;-36.8442;2805703.0;11;9;10;0.0003514066051987;0;2;2;2;2;2;2;;;;;;;1.0;0.0;3.0
SPORT LAGOA SECA;PB;Lucena;-6.8928;-34.8647;2508604.0;10;5;28;0.0003507868736193;0;2;2;2;2;2;2;;;;;;;0.0;2.0;2.0
ESSUBE;MG;Uberlândia;-18.9113;-48.2622;3170206.0;7;3;10;0.0003488178083287;1;1;0;0;1;0;3;;;;0.0;0.0;3.0;;;
ATL. TRÊS CORAÇÕES;MG;Barbacena;-21.2214;-43.7703;3105608.0;8;4;20;0.0003474828375591;1;1;0;0;5;5;5;;;;0.0;2.0;2.0;;;
CRUZEIRO;PB;Itaporanga;-7.3039;-38.1506;2507002.0;9;5;8;0.0003465998810104;0;2;2;2;2;2;2;;;;;;;0.0;1.0;0.0
SSA;BA;Salvador;-12.9718;-38.5011;2927408.0;5;8;5;0.0003424536961606;0;2;2;2;2;2;2;;;;;;;1.0;0.0;1.0
NÁUTICO;MS;Campo Grande;-20.4697;-54.6201;5002704.0;6;2;19;0.0003401686728349;1;1;0;0;1;0;1;;;;0.0;0.0;0.0;;;
JACIOBÁ;AL;Pão de Açúcar;-9.7497;-37.4375;2706307.0;7;16;48;0.0003397710405762;0;2;2;2;2;2;2;;;;;;;1.0;0.0;3.0
CAMPO GRANDE;CE;Juazeiro do Norte;-7.2372;-39.4121;2307301.0;9;5;15;0.0003387938734191;0;2;2;2;2;2;2;;;;;;;0.0;1.0;0.0
TARUMÃ;AM;Manaus;-3.11866;-60.0212;1302603.0;9;6;16;0.0003378229256761;0;0;1;1;0;3;7;0.0;1.0;1.0;;;;;;
IRANDUBA;AM;Iranduba;-3.2847;-60.1858;1301852.0;4;8;19;0.0003377161578213;0;0;1;1;0;3;7;0.0;1.0;1.0;;;;;;
VILHENA;RO;Vilhena;-12.7502;-60.1488;1100304.0;7;5;15;0.0003368107518343;0;0;1;1;0;6;6;0.0;2.0;2.0;;;;;;
RIO NEGRO;RR;Boa Vista;2.82384;-60.6753;1400100.0;9;7;30;0.0003366085349672;0;0;1;1;0;3;7;0.0;1.0;1.0;;;;;;
RIO BRANCO - VN;ES;Cariacica;-20.2632;-40.4165;3201308.0;8;13;5;0.0003358680133098;1;1;0;0;5;5;5;;;;0.0;2.0;2.0;;;
CABENSE;PE;Cabo de Santo Agostinho;-8.28218;-35.0253;2602902.0;5;9;17;0.0003356698284516;0;2;2;2;2;2;2;;;;;;;0.0;2.0;2.0
UNIVAP APODI;RN;Apodi;-5.6606;-37.7972;2401009.0;3;2;5;0.0003346843859364;0;2;2;2;2;2;2;;;;;;;0.0;1.0;0.0
RENOVAÇÃO;AP;Macapá;-0.0383;-51.0632;1600303.0;4;3;3;0.0003337931080226;0;0;3;3;3;1;0;1.0;0.0;3.0;;;;;;
SANTACRUZENSE;SP;Santa Cruz do Rio Pardo;-22.8988;-49.6354;3546405.0;5;8;22;0.0003296002357237;1;1;0;0;1;0;1;;;;0.0;0.0;0.0;;;
ASTER BRASIL;ES;Vitória;-20.3155;-40.3128;3205309.0;13;13;16;0.0003295855204232;1;1;0;0;5;5;5;;;;0.0;2.0;2.0;;;
RIACHÃO;SE;Riachão do Dantas;-11.0729;-37.731;2805802.0;7;12;12;0.0003287128181891;0;2;2;2;2;2;2;;;;;;;1.0;0.0;3.0
SÃO JOSÉ;TO;Palmas;-10.1844;-48.3336;1721000.0;5;4;10;0.000328070122124;0;0;3;3;3;1;0;1.0;0.0;0.0;;;;;;
CACERENSE;MT;Cáceres;-16.0764;-57.6818;5102504.0;7;8;7;0.000327081630009;1;1;0;0;1;0;1;;;;0.0;0.0;0.0;;;
CORITIBA;SE;Itabaiana;-10.6853;-37.4253;2802908.0;9;6;24;0.0003261579869054;0;2;2;2;2;2;2;;;;;;;1.0;0.0;3.0
INTER SM;RS;Santa Maria;-29.6842;-53.8069;4316907.0;19;3;7;0.0003247908220951;1;1;0;4;4;4;4;;;;1.0;1.0;1.0;;;
AGRIMAQ JEQUIAENSE;AL;Jequiá da Praia;-10.0039;-36.021;2703759.0;8;1;8;0.0003246202931472;0;2;2;2;2;2;2;;;;;;;1.0;0.0;3.0
TIRADENTES;PA;Belém;-1.4554;-48.4898;1501402.0;5;4;20;0.0003227697650133;0;0;3;3;3;1;0;1.0;0.0;3.0;;;;;;
VÊNUS;PA;Abaetetuba;-1.72183;-48.8788;1500107.0;6;5;14;0.0003211472994347;0;0;3;3;3;1;0;1.0;0.0;3.0;;;;;;
ARACAJU;SE;Aracaju;-10.9091;-37.0677;2800308.0;9;5;20;0.000318596217531;0;2;2;2;2;2;2;;;;;;;1.0;0.0;3.0
ASSU;RN;Assu;-5.5772;-36.9114;2400209.0;7;22;43;0.0003170038211936;0;2;2;2;2;2;2;;;;;;;0.0;1.0;0.0
ESPORTE LIMOEIRO;CE;Limoeiro do Norte;-5.14392;-38.0847;2307601.0;5;8;20;0.0003169775869216;0;2;2;2;2;2;2;;;;;;;0.0;1.0;0.0
ATLÉTICO PIAUIENSE;PI;Teresina;-5.09194;-42.8034;2211001.0;8;6;3;0.0003166128312105;0;0;3;3;3;1;0;1.0;0.0;0.0;;;;;;
FORTE;ES;Cachoeiro de Itapemirim;-20.8462;-41.1198;3201209.0;10;9;15;0.0003165331185318;1;1;0;0;5;5;5;;;;0.0;2.0;2.0;;;
CRUZEIRO;DF;Cruzeiro;-15.7934;-47.9406;5300108.0;6;5;9;0.0003165103948204;1;1;0;0;1;0;3;;;;0.0;0.0;3.0;;;
CRUZEIRO;AP;Macapá;-0.0383;-51.0632;1600303.0;3;2;5;0.0003136678566341;0;0;3;3;3;1;0;1.0;0.0;3.0;;;;;;
BACABAL;MA;Bacabal;-4.22447;-44.7832;2101202.0;6;6;16;0.0003118883691593;0;0;3;3;3;1;0;1.0;0.0;0.0;;;;;;
12 HORAS;RS;Porto Alegre;-30.0331;-51.23;4314902.0;7;6;20;0.000311779085428;1;1;0;4;4;4;4;;;;1.0;1.0;1.0;;;
CASTELO;ES;Castelo;-20.6033;-41.2031;3201407.0;11;5;14;0.0003116461412488;1;1;0;0;5;5;5;;;;0.0;2.0;2.0;;;
ALVORADA;TO;Alvorada;-12.4785;-49.1249;1700707.0;4;6;6;0.0003115275803503;0;0;3;3;3;1;0;1.0;0.0;0.0;;;;;;
TORRES BRASIL;PE;Camaragibe;-8.02351;-34.9782;2603454.0;7;2;9;0.0003101897880218;0;2;2;2;2;2;2;;;;;;;0.0;2.0;2.0
MANCHESTER FUTEBOL;MG;Juiz de Fora;-21.7642;-43.3503;3136702.0;5;4;3;0.0003095481433764;1;1;0;0;5;5;5;;;;0.0;2.0;2.0;;;
JC FUTEBOL CLUBE;AM;Itacoatiara;-3.1417;-58.4444;1301902.0;6;6;22;0.0003075952693749;0;0;1;1;0;3;7;0.0;1.0;1.0;;;;;;
BARCELONA ESPORTIVO;SP;São Paulo;-23.5505;-46.6333;3550308.0;4;9;22;0.0003070947479751;1;1;0;0;5;5;5;;;;0.0;2.0;2.0;;;
NÁUAS;AC;Cruzeiro do Sul;-7.6649;-72.6504;4106704.0;8;5;27;0.0003070102851279;0;0;1;1;0;6;6;0.0;2.0;2.0;;;;;;
CASIMIRO DE ABREU;RJ;Casimiro de Abreu;-22.4812;-42.2066;3301306.0;8;4;14;0.0003042796417282;1;1;0;0;5;5;5;;;;0.0;2.0;2.0;;;
ANDIRÁ;AC;Rio Branco;-9.974;-67.8076;5107206.0;7;4;26;0.000300645038267;0;0;1;1;0;6;6;0.0;2.0;2.0;;;;;;
SUL AMÉRICA;AM;Manaus;-3.11866;-60.0212;1302603.0;8;3;15;0.0002990871832687;0;0;1;1;0;3;7;0.0;1.0;1.0;;;;;;
RONDONIENSE;RO;Porto Velho;-8.76077;-63.8999;1100205.0;4;5;19;0.0002977746642868;0;0;1;1;0;6;6;0.0;2.0;2.0;;;;;;
HOPE INTERNACIONAL;PR;Curitiba;-25.4195;-49.2646;4106902.0;8;10;20;0.0002945981740409;1;1;0;4;4;4;4;;;;1.0;1.0;1.0;;;
INTERNACIONAL B;RS;Porto Alegre;-30.0318;-51.2065;4314902.0;5;2;16;0.0002945480278599;1;1;0;4;4;4;4;;;;1.0;1.0;1.0;;;
PORTO;SC;Porto União;-26.2451;-51.0759;4213609.0;7;7;31;0.000294048238439;1;1;0;4;4;4;4;;;;1.0;1.0;1.0;;;
SÃOJOSEENSE;PR;São José dos Pinhais;-25.5347;-49.2064;4125506.0;8;6;6;0.000293802262962;1;1;0;4;4;4;4;;;;1.0;1.0;1.0;;;
BRAZLÂNDIA;DF;Brasília;-15.6667;-48.1961;5300108.0;5;3;10;0.0002928764556463;1;1;0;0;1;0;3;;;;0.0;0.0;3.0;;;
GEL;ES;Serra;-20.1286;-40.3078;3205000.0;7;7;56;0.0002926638899936;1;1;0;0;5;5;5;;;;0.0;2.0;2.0;;;
PIRES DO RIO;GO;Pires do Rio;-17.3019;-48.2768;5217401.0;6;6;14;0.0002908529372639;1;1;0;0;1;0;3;;;;0.0;0.0;3.0;;;
MESQUITA;RJ;Mesquita;-22.8028;-43.4601;3302858.0;8;4;19;0.0002902322421845;1;1;0;0;5;5;5;;;;0.0;2.0;2.0;;;
CDC DA AMAZÔNIA;AM;Manaus;-3.11866;-60.0212;1302603.0;5;6;16;0.0002881675269203;0;0;1;1;0;3;7;0.0;1.0;1.0;;;;;;
INDEPENDENTE;RJ;Macaé;-22.3708;-41.7869;3302403.0;6;3;3;0.0002879942860938;1;1;0;0;5;5;5;;;;0.0;2.0;2.0;;;
RIACHUELO;RN;Riachuelo;-5.82156;-35.8215;2410900.0;6;1;12;0.0002857126822915;0;2;2;2;2;2;2;;;;;;;0.0;2.0;2.0
SER CRUZ ALTA;RS;Cruz Alta;-28.645;-53.6048;4306106.0;6;2;8;0.0002853169877039;1;1;0;4;4;4;4;;;;1.0;1.0;1.0;;;
TIANGUÁ;CE;Tianguá;-3.72965;-40.9923;2313401.0;6;3;7;0.0002851526519174;0;0;3;3;3;1;0;1.0;0.0;0.0;;;;;;
RIACHO CITY;DF;Riacho Fundo;-15.8821;-48.0163;5300108.0;6;1;18;0.0002835732517681;1;1;0;0;1;0;3;;;;0.0;0.0;3.0;;;
QUEIMADOS;RJ;Queimados;-22.7153;-43.5558;3304144.0;5;6;16;0.0002829768001052;1;1;0;0;5;5;5;;;;0.0;2.0;2.0;;;
ANDRADINA;SP;Andradina;-20.8948;-51.3786;3502101.0;6;1;13;0.0002815577086173;1;1;0;0;1;0;1;;;;0.0;0.0;0.0;;;
FEMAR;PB;Alagoinha;-6.9533;-35.5414;2500601.0;4;4;7;0.0002808735162064;0;2;2;2;2;2;2;;;;;;;0.0;2.0;2.0
SERRANO;PB;Campina Grande;-7.22196;-35.8731;2504009.0;7;2;17;0.0002800341929696;0;2;2;2;2;2;2;;;;;;;0.0;2.0;2.0
URUMAJÓ;PA;Augusto Corrêa;-1.0217;-46.6347;1500909.0;3;3;2;0.0002791943309804;0;0;3;3;3;1;0;1.0;0.0;3.0;;;;;;
CENTRAL PARAÍSO;TO;Paraíso do Tocantins;-10.1753;-48.8839;1716109.0;4;3;5;0.000278387172854;0;0;3;3;3;1;0;1.0;0.0;0.0;;;;;;
FEIRENSE;BA;Santo Antônio de Jesus;-12.9614;-39.2584;2928703.0;3;4;13;0.000277475060514;0;2;2;2;2;2;2;;;;;;;1.0;0.0;1.0
JARAGUÁ;SC;Jaraguá do Sul;-26.4851;-49.0713;4208906.0;7;4;22;0.0002755757316465;1;1;0;4;4;4;4;;;;1.0;1.0;1.0;;;
PONTAPORANENSE;MS;Ponta Porã;-22.5361;-55.7256;5006606.0;2;2;15;0.0002743730765759;1;1;0;0;1;0;1;;;;0.0;0.0;0.0;;;
ATIBAIA;SP;Atibaia;-23.1171;-46.5563;3504107.0;7;4;11;0.0002738589051413;1;1;0;0;5;5;5;;;;0.0;2.0;2.0;;;
BRASIL DE FARROUPILHA;RS;Farroupilha;-29.2227;-51.3419;4307906.0;7;4;7;0.0002724500864705;1;1;0;4;4;4;4;;;;1.0;1.0;1.0;;;
UNIÃO ATLÉTICA ARAGUAINENSE;TO;Araguaína;-7.1925;-48.2078;1702109.0;4;1;0;0.0002712967701212;0;0;3;3;3;1;0;1.0;0.0;0.0;;;;;;
LAGO VERDE;MA;Lago Verde;-3.9572;-44.8317;2105908.0;5;2;1;0.0002711095703897;0;0;3;3;3;1;0;1.0;0.0;0.0;;;;;;
ARAGUAIA DE PALMAS;TO;Palmas;-10.1844;-48.3336;1721000.0;4;2;7;0.0002706967607811;0;0;3;3;3;1;0;1.0;0.0;0.0;;;;;;
ROYAL;GO;Luziânia;-16.2524;-47.9504;5212501.0;0;5;1;0.0002695389206835;1;1;0;0;1;0;3;;;;0.0;0.0;3.0;;;
LAGOA;AP;Macapá;0.034934;-51.0694;1600303.0;2;1;6;0.0002683605253098;0;0;3;3;3;1;0;1.0;0.0;3.0;;;;;;
INDEPENDENTE;PA;Belterra;-2.63609;-54.9374;1501451.0;5;2;8;0.0002680006117134;0;0;3;3;3;1;0;1.0;0.0;3.0;;;;;;
CANAÃ;BA;Irecê;-11.3039;-41.8569;2914604.0;2;7;6;0.0002673483253732;0;2;2;2;2;2;2;;;;;;;1.0;0.0;1.0
PATROCINENSE;MG;Patrocínio;-18.9379;-46.9934;3148103.0;3;2;3;0.0002662946042127;1;1;0;0;1;0;3;;;;0.0;0.0;3.0;;;
JUVENTUS DE MINAS NOVAS;MG;Caldas;-21.9183;-46.3843;3110301.0;3;3;11;0.0002659290751552;1;1;0;0;5;5;5;;;;0.0;2.0;2.0;;;
MARAU;RS;Santa Maria;-29.6868;-53.8149;4316907.0;0;5;27;0.0002651430909326;1;1;0;4;4;4;4;;;;1.0;1.0;1.0;;;
TERRA E MAR;CE;Fortaleza;-3.71664;-38.5423;2304400.0;6;4;13;0.0002637093162346;0;2;2;2;2;2;2;;;;;;;0.0;1.0;0.0
ITAREMA;CE;Itarema;-2.9231;-39.9161;2306253.0;5;3;16;0.0002626094142705;0;0;3;3;3;1;0;1.0;0.0;0.0;;;;;;
RIVER;RR;Boa Vista;2.82384;-60.6753;1400100.0;6;2;8;0.0002624238242577;0;0;1;1;0;3;7;0.0;1.0;1.0;;;;;;
RB DO NORTE;AM;Manacapuru;-3.29066;-60.6216;1302504.0;6;3;12;0.0002621220915629;0;0;1;1;0;3;7;0.0;1.0;1.0;;;;;;
MOGI MIRIM;SP;Mogi Mirim;-22.4332;-46.9532;3530805.0;2;6;12;0.0002609036987273;1;1;0;0;5;5;5;;;;0.0;2.0;2.0;;;
PEDRA BRANCA;SC;Palhoça;-27.6419;-48.6667;4211900.0;8;3;11;0.0002605633252608;1;1;0;4;4;4;4;;;;1.0;1.0;1.0;;;
TUPY;ES;Vila Velha;-20.3417;-40.2875;3205200.0;5;8;6;0.0002597917863533;1;1;0;0;5;5;5;;;;0.0;2.0;2.0;;;
LATITUDE ZERO;AP;Macapá;-0.0383;-51.0632;1600303.0;2;2;6;0.0002597668866571;0;0;3;3;3;1;0;1.0;0.0;3.0;;;;;;
ATLÉTICO AMAZONENSE;AM;Manaus;-3.11866;-60.0212;1302603.0;3;6;10;0.0002596718727212;0;0;1;1;0;3;7;0.0;1.0;1.0;;;;;;
JUARA;MT;Juara;-11.4194;-57.5186;5105150.0;3;4;1;0.0002596692224371;1;1;0;0;1;0;1;;;;0.0;0.0;0.0;;;
ATLÉTICO CERRADO;TO;Paraíso do Tocantins;-10.1753;-48.8839;1716109.0;2;2;9;0.0002592366061897;0;0;3;3;3;1;0;1.0;0.0;0.0;;;;;;
CAMPO NOVO;MT;Campo Novo do Parecis;-13.6744;-57.8869;5102637.0;7;1;12;0.0002584137384874;1;1;0;0;1;0;1;;;;0.0;0.0;0.0;;;
SABUGY;PB;Santa Luzia;-9.8475;-36.9189;2513903.0;5;4;24;0.0002583456562181;0;2;2;2;2;2;2;;;;;;;1.0;0.0;3.0
LEÔNICO;BA;Salvador;-12.9718;-38.5011;2927408.0;2;5;17;0.0002582177169426;0;2;2;2;2;2;2;;;;;;;1.0;0.0;1.0
FLAMENGO DE GUANAMBI;BA;Madre de Deus;-12.7446;-38.6153;2919926.0;4;2;5;0.0002577212798194;0;2;2;2;2;2;2;;;;;;;1.0;0.0;1.0
CORITIBA B;PR;Curitiba;-25.4195;-49.2646;4106902.0;1;6;1;0.0002575160232098;1;1;0;4;4;4;4;;;;1.0;1.0;1.0;;;
PASSOS;MG;Passos;-20.7193;-46.609;3147907.0;3;5;5;0.0002574673758194;1;1;0;0;1;0;3;;;;0.0;0.0;3.0;;;
ROLIM DE MOURA;RO;Rolim de Moura;-11.7271;-61.7714;1100288.0;3;3;8;0.0002560497610786;0;0;1;1;0;6;6;0.0;2.0;2.0;;;;;;
SÃO GABRIEL;MS;Bela Vista;-22.1073;-56.5263;5002100.0;3;3;11;0.0002552618358663;1;1;0;0;1;0;1;;;;0.0;0.0;0.0;;;
CAIÇARA;PI;Campo Maior;-4.8217;-42.1641;2202208.0;6;4;13;0.0002544153234285;0;0;3;3;3;1;0;1.0;0.0;0.0;;;;;;
SAMPAIO;RR;Boa Vista;2.82384;-60.6753;1400100.0;4;4;14;0.0002542245060103;0;0;1;1;0;3;7;0.0;1.0;1.0;;;;;;
NAVEGANTES;SC;Navegantes;-26.8943;-48.6546;4211306.0;7;1;18;0.0002522556104105;1;1;0;4;4;4;4;;;;1.0;1.0;1.0;;;
NOVA PRATA;RS;Nova Prata;-28.7799;-51.6113;4313300.0;4;7;27;0.0002508562197188;1;1;0;4;4;4;4;;;;1.0;1.0;1.0;;;
INDEPENDENTE DE RIO VERDE;GO;Rio Verde;-17.7923;-50.9192;5218805.0;4;2;8;0.0002491553614527;1;1;0;0;1;0;3;;;;0.0;0.0;3.0;;;
ATLÉTICO MOGI;SP;Bariri;-22.073;-48.7438;3505203.0;4;5;39;0.0002491213420826;1;1;0;0;5;5;5;;;;0.0;2.0;2.0;;;
BOTAFOGO;SE;Cristinápolis;-11.4668;-37.7585;2801702.0;4;8;19;0.0002489383344725;0;2;2;2;2;2;2;;;;;;;1.0;0.0;3.0
FORTALEZA B;CE;Fortaleza;-3.71664;-38.5423;2304400.0;3;5;3;0.0002484725417707;0;2;2;2;2;2;2;;;;;;;0.0;1.0;0.0
CAP DE UBERLÂNDIA;MG;Uberlândia;-18.9141;-48.2749;3170206.0;3;2;11;0.0002480658466907;1;1;0;0;1;0;3;;;;0.0;0.0;3.0;;;
ATLÉTICO DE CAJAZEIRAS;PB;Livramento;-7.37113;-36.9491;2508505.0;5;1;12;0.0002480381613798;0;2;2;2;2;2;2;;;;;;;0.0;1.0;0.0
MIRAMAR;PB;Cabedelo;-6.98731;-34.8284;2503209.0;4;3;3;0.0002478385038604;0;2;2;2;2;2;2;;;;;;;0.0;2.0;2.0
ATLÉTICO BATISTENSE;SC;São José;-27.6136;-48.6366;4216602.0;4;3;15;0.0002468253377185;1;1;0;4;4;4;4;;;;1.0;1.0;1.0;;;
TRÊS PASSOS;RS;Três Passos;-27.4555;-53.9296;4321907.0;7;1;14;0.0002463300097081;1;1;0;4;4;4;4;;;;1.0;1.0;1.0;;;
PESQUEIRA;PE;Pesqueira;-8.35797;-36.6978;2610905.0;3;5;8;0.0002461187159614;0;2;2;2;2;2;2;;;;;;;0.0;2.0;2.0
SABIÁ;MA;Caxias;-4.86505;-43.3617;2103000.0;4;1;5;0.0002459257206931;0;0;3;3;3;1;0;1.0;0.0;0.0;;;;;;
CANÁRIO;AP;Macapá;0.034934;-51.0694;1600303.0;2;2;5;0.0002450624744176;0;0;3;3;3;1;0;1.0;0.0;3.0;;;;;;
BARE;AP;Macapá;-0.0383;-51.0632;1600303.0;2;1;9;0.0002412998813338;0;0;3;3;3;1;0;1.0;0.0;3.0;;;;;;
BELENENSE;PA;Santa Izabel do Pará;-1.29686;-48.1606;1506500.0;6;1;8;0.0002406723730956;0;0;3;3;3;1;0;1.0;0.0;3.0;;;;;;
RONDONÓPOLIS;MT;Rondonópolis;-16.4673;-54.6372;5107602.0;3;4;1;0.0002401524134601;1;1;0;0;1;0;1;;;;0.0;0.0;0.0;;;
BRASILIS;SP;Águas de Lindóia;-22.4733;-46.6314;3500501.0;2;4;2;0.0002387146245953;1;1;0;0;5;5;5;;;;0.0;2.0;2.0;;;
UNIÃO DE PALMAS;TO;Palmas;-10.1844;-48.3336;1721000.0;3;1;10;0.000236770650157;0;0;3;3;3;1;0;1.0;0.0;0.0;;;;;;
CHAPECOENSE B;SC;Chapecó;-27.103888888;-52.606666666;4204202.0;14;12;12;0.0002365930953173;1;1;0;4;4;4;4;;;;1.0;1.0;1.0;;;
PRS;RS;Porto Alegre;-30.0331;-51.23;4314902.0;6;4;6;0.0002359731703442;1;1;0;4;4;4;4;;;;1.0;1.0;1.0;;;
AMERICANO;MA;Bacabal;-4.22447;-44.7832;2101202.0;3;2;5;0.0002359567634187;0;0;3;3;3;1;0;1.0;0.0;0.0;;;;;;
BETIS;MG;Ouro Branco;-20.5263;-43.6962;3145901.0;1;4;14;0.0002359103204726;1;1;0;0;5;5;5;;;;0.0;2.0;2.0;;;
G.A.S;RR;Boa Vista;2.8233;-60.675;1400100.0;4;2;5;0.0002358529126094;0;0;1;1;0;3;7;0.0;1.0;1.0;;;;;;
YPIRANGA;BA;Salvador;-12.9718;-38.5011;2927408.0;2;4;2;0.0002353389043398;0;2;2;2;2;2;2;;;;;;;1.0;0.0;1.0
TESLA;PA;Belém;-1.4558;-48.4902;1501402.0;5;2;7;0.0002347958345861;0;0;3;3;3;1;0;1.0;0.0;3.0;;;;;;
ADEC;AP;Calçoene;2.49804;-50.9496;;2;1;6;0.0002338911489438;0;0;3;3;3;1;0;1.0;0.0;3.0;;;;;;
MARAJÓ;PA;Breves;-1.6821;-50.4802;1501808.0;1;1;4;0.0002332375182232;0;0;3;3;3;1;0;1.0;0.0;3.0;;;;;;
DUQUE CAXIENSE;RJ;Duque de Caxias;-22.7858;-43.3049;3301702.0;3;3;13;0.0002328410647762;1;1;0;0;5;5;5;;;;0.0;2.0;2.0;;;
ALIANÇA;CE;Pacatuba;-3.9842;-38.6203;2310107.0;4;2;6;0.0002328401278029;0;2;2;2;2;2;2;;;;;;;0.0;1.0;0.0
PIMENTENSE;RO;Pimenta Bueno;-11.672;-61.198;1100189.0;2;4;10;0.0002320236525886;0;0;1;1;0;6;6;0.0;2.0;2.0;;;;;;
SETE;AM;Manaus;-3.119;-60.0217;1302603.0;4;3;6;0.0002313571292975;0;0;1;1;0;3;7;0.0;1.0;1.0;;;;;;
POTENGI;RN;Natal;-5.7945;-35.2119;2408102.0;3;2;7;0.000230750986818;0;2;2;2;2;2;2;;;;;;;0.0;2.0;2.0
PARAÍSO;TO;Paraíso do Tocantins;-10.1753;-48.8839;1716109.0;1;3;6;0.0002296004398745;0;0;3;3;3;1;0;1.0;0.0;0.0;;;;;;
UNIÃO FREDERIQUENSE;RS;Frederico Westphalen;-27.3586;-53.3958;4308508.0;5;5;18;0.0002291939147676;1;1;0;4;4;4;4;;;;1.0;1.0;1.0;;;
PARAÍBA DO SUL;RJ;Paraíba do Sul;-22.1585;-43.304;3303708.0;3;1;5;0.0002283943199375;1;1;0;0;5;5;5;;;;0.0;2.0;2.0;;;
CRB B;AL;Maceió;-9.6658;-35.735;2704302.0;4;3;4;0.0002262279023912;0;2;2;2;2;2;2;;;;;;;1.0;0.0;3.0
OSASCO;SP;Osasco;-23.5324;-46.7916;3534401.0;4;1;3;0.0002259329531413;1;1;0;0;5;5;5;;;;0.0;2.0;2.0;;;
TRÊS LAGOAS;MS;Três Lagoas;-20.7849;-51.7007;5008305.0;3;3;9;0.0002256268368795;1;1;0;0;1;0;1;;;;0.0;0.0;0.0;;;
FIGUEIRENSE;MG;São João del-Rei;-21.1353;-44.2614;3162500.0;1;5;10;0.0002251915612177;1;1;0;0;5;5;5;;;;0.0;2.0;2.0;;;
ATLÉTICO BACABAL;MA;Bacabal;-4.22447;-44.7832;2101202.0;3;1;4;0.0002250863516452;0;0;3;3;3;1;0;1.0;0.0;0.0;;;;;;
TERESINA;PI;Teresina;-5.09194;-42.8034;2211001.0;3;5;0;0.0002241589014682;0;0;3;3;3;1;0;1.0;0.0;0.0;;;;;;
BOTAFOGO;GO;Cristalina;-16.7686;-47.6136;5206206.0;3;2;12;0.0002238131443465;1;1;0;0;1;0;3;;;;0.0;0.0;3.0;;;
7 DE SETEMBRO;MS;Dourados;-22.2231;-54.812;5003702.0;5;3;4;0.0002234679341695;1;1;0;0;1;0;1;;;;0.0;0.0;0.0;;;
CALOUROS DO AR;CE;Fortaleza;-3.71664;-38.5423;2304400.0;5;0;3;0.000223456667373;0;2;2;2;2;2;2;;;;;;;0.0;1.0;0.0
ATLÉTICO;RS;Gravataí;-29.9413;-50.9869;4309209.0;6;0;22;0.0002234436455229;1;1;0;4;4;4;4;;;;1.0;1.0;1.0;;;
CEARÁ B;CE;Fortaleza;-3.71664;-38.5423;2304400.0;3;2;4;0.0002229363287688;0;2;2;2;2;2;2;;;;;;;0.0;1.0;0.0
BRÉSCIA;RJ;Magé;-22.6632;-43.0315;3302502.0;4;3;6;0.0002226630341917;1;1;0;0;5;5;5;;;;0.0;2.0;2.0;;;
FERROVIÁRIO;PI;Parnaíba;-2.9031;-41.7761;2207701.0;3;3;1;0.0002206007498158;0;0;3;3;3;1;0;1.0;0.0;0.0;;;;;;
OESTE BRASIL;PR;Maringá;-23.4205;-51.9333;4115200.0;5;2;9;0.0002202315445967;1;1;0;0;1;0;1;;;;0.0;0.0;0.0;;;
GRÊMIO OSASCO;SP;Osasco;-23.5324;-46.7916;3534401.0;3;3;10;0.0002185018196868;1;1;0;0;5;5;5;;;;0.0;2.0;2.0;;;
CLUBE 1992;RS;Carazinho;-28.2839;-52.7844;4304705.0;0;8;6;0.0002173131706679;1;1;0;4;4;4;4;;;;1.0;1.0;1.0;;;
ITACOATIARA;AM;Itacoatiara;-3.1417;-58.4444;1301902.0;2;4;0;0.0002164778764903;0;0;1;1;0;3;7;0.0;1.0;1.0;;;;;;
RIO BRANCO SPORT CLUB;PR;Paranaguá;-25.5161;-48.5225;4118204.0;2;6;16;0.0002145920274955;1;1;0;4;4;4;4;;;;1.0;1.0;1.0;;;
UNIÃO INHUMAS;GO;Inhumas;-16.3611;-49.5001;5210000.0;2;1;7;0.0002143858759216;1;1;0;0;1;0;3;;;;0.0;0.0;3.0;;;
VOTUPORANGUENSE;SP;Guaíra;-20.3196;-48.312;3517406.0;0;1;0;0.000212066804436;1;1;0;0;1;0;3;;;;0.0;0.0;3.0;;;
CITY LONDON;PR;Londrina;-23.3103;-51.1628;4113700.0;3;5;2;0.0002114723206753;1;1;0;0;1;0;1;;;;0.0;0.0;0.0;;;
UNIÃO HARMONIA;RS;Canoas;-29.9189;-51.1767;4304606.0;3;4;49;0.0002113730749633;1;1;0;4;4;4;4;;;;1.0;1.0;1.0;;;
COMERCIAL DE TRÊS LAGOAS;MS;Três Lagoas;-20.7849;-51.7007;5008305.0;1;3;2;0.000211147989749;1;1;0;0;1;0;1;;;;0.0;0.0;0.0;;;
TUBARÃO;SC;Tubarão;-28.4713;-49.0144;4218707.0;2;8;16;0.0002110689068887;1;1;0;4;4;4;4;;;;1.0;1.0;1.0;;;
ELOSPORT CAPÃO BONITO;SP;Sorocaba;-23.4969;-47.4451;3552205.0;1;2;5;0.0002105960169567;1;1;0;0;5;5;5;;;;0.0;2.0;2.0;;;
CSA B;AL;Maceió;-9.6658;-35.735;2704302.0;3;3;2;0.0002093382307782;0;2;2;2;2;2;2;;;;;;;1.0;0.0;3.0
LIBRADE;AM;Manaus;-3.119;-60.0217;1302603.0;3;0;8;0.0002093162991538;0;0;1;1;0;3;7;0.0;1.0;1.0;;;;;;
SANTA CRUZ;MT;Barra do Bugres;-15.0702;-57.1878;5101704.0;2;0;8;0.0002091807899812;1;1;0;0;1;0;1;;;;0.0;0.0;0.0;;;
GUAJARÁ;RO;Guajará-Mirim;-10.7889;-65.3296;1100106.0;1;1;4;0.0002084330581176;0;0;1;1;0;6;6;0.0;2.0;2.0;;;;;;
SANTA CRUZ;AC;Rio Branco;-9.974;-67.8076;3101300.0;5;3;1;0.0002081700049555;0;0;1;1;0;6;6;0.0;2.0;2.0;;;;;;
CANOINHAS;SC;Canoinhas;-26.1772;-50.39;4203808.0;4;0;5;0.0002080298660495;1;1;0;4;4;4;4;;;;1.0;1.0;1.0;;;
ÁGUIA DE CUMARU;PE;Petrolina;-9.38866;-40.5027;2611101.0;2;1;5;0.0002078254027157;0;2;2;2;2;2;2;;;;;;;1.0;0.0;1.0
BELA VISTA;RJ;Saquarema;-22.9292;-42.5099;3305505.0;2;2;24;0.0002070316348435;1;1;0;0;5;5;5;;;;0.0;2.0;2.0;;;
CRICIÚMA B;SC;Criciúma;-28.6723;-49.3729;4204608.0;4;6;0;0.0002067889217258;1;1;0;4;4;4;4;;;;1.0;1.0;1.0;;;
BARREIROS;PE;Barreiros;-8.8153;-35.1878;2601409.0;2;1;2;0.00020307018238;0;2;2;2;2;2;2;;;;;;;0.0;2.0;2.0
CANAÃ;DF;Brasília;-15.7795;-47.9297;5300108.0;3;0;2;0.00020138285502;1;1;0;0;1;0;3;;;;0.0;0.0;3.0;;;
TIMBAÚBA;PE;Timbaúba;-7.50484;-35.3119;2615300.0;1;2;2;0.0002011822241803;0;2;2;2;2;2;2;;;;;;;0.0;2.0;2.0
ATHLETICO PARANAENSE B;PR;Curitiba;-25.4195;-49.2646;4106902.0;1;3;2;0.0002009953575026;1;1;0;4;4;4;4;;;;1.0;1.0;1.0;;;
GRECAL;PR;Francisco Beltrão;-26.0817;-53.0535;4108403.0;2;2;9;0.0002000615528273;1;1;0;4;4;4;4;;;;1.0;1.0;1.0;;;
CUIABÁ B;MT;Cuiabá;-15.601;-56.0974;5103403.0;7;5;11;0.000199498082287;1;1;0;0;1;0;1;;;;0.0;0.0;0.0;;;
ARSENAL;TO;Tocantinópolis;-6.32447;-47.4224;1721208.0;1;1;12;0.000199171793397;0;0;3;3;3;1;0;1.0;0.0;0.0;;;;;;
CAMAÇARIENSE;BA;Camaçari;-12.6996;-38.3263;2905701.0;1;1;3;0.0001988890134906;0;2;2;2;2;2;2;;;;;;;1.0;0.0;1.0
MORENINHAS;MS;Campo Grande;-20.4697;-54.6201;5002704.0;2;1;3;0.0001968979380849;1;1;0;0;1;0;1;;;;0.0;0.0;0.0;;;
TAVEIRÓPOLIS;MS;Campo Grande;-20.4697;-54.6201;5002704.0;2;0;8;0.0001964093183414;1;1;0;0;1;0;1;;;;0.0;0.0;0.0;;;
ATLÉTICO;MT;Alto Araguaia;-17.3153;-53.2181;5100300.0;1;2;6;0.0001962936223683;1;1;0;0;1;0;1;;;;0.0;0.0;0.0;;;
SPORTING MARACANÃ;PA;Augusto Corrêa;-1.0217;-46.6347;1500909.0;0;2;2;0.0001959985426181;0;0;3;3;3;1;0;1.0;0.0;3.0;;;;;;
VILA REAL;CE;Jardim;-7.57599;-39.2826;2307106.0;3;2;5;0.00019565785422;0;2;2;2;2;2;2;;;;;;;0.0;1.0;0.0
TAQUARUSSÚ;TO;Palmas;-10.1844;-48.3336;1721000.0;1;1;13;0.0001939919100209;0;0;3;3;3;1;0;1.0;0.0;0.0;;;;;;
SANTA FÉ;PE;Recife;-8.04666;-34.8771;2611606.0;0;2;3;0.0001926989477079;0;2;2;2;2;2;2;;;;;;;0.0;2.0;2.0
DÍNAMO;AL;Maceió;-9.6658;-35.735;2704302.0;2;3;19;0.000191114006585;0;2;2;2;2;2;2;;;;;;;1.0;0.0;3.0
ARAGUARI;MG;Araguari;-18.6456;-48.1934;3103504.0;0;1;14;0.0001901092813237;1;1;0;0;1;0;3;;;;0.0;0.0;3.0;;;
EXPRESSINHO;MA;São Luís;-2.53874;-44.2825;2111300.0;1;0;13;0.0001895655364044;0;0;3;3;3;1;0;1.0;0.0;0.0;;;;;;
ANJOS DO CÉU;CE;Cruz;-2.91813;-40.176;2304251.0;1;2;4;0.000189395797025;0;0;3;3;3;1;0;1.0;0.0;0.0;;;;;;
SÃO GABRIEL;RS;São Gabriel;-30.3337;-54.3217;4318309.0;0;3;17;0.0001888870267277;1;1;0;4;4;4;4;;;;1.0;1.0;1.0;;;
COTINGUIBA;SE;Aracaju;-10.9091;-37.0677;2800308.0;1;1;5;0.0001883874985145;0;2;2;2;2;2;2;;;;;;;1.0;0.0;3.0
PIRAPORA;MG;Pirapora;-17.3392;-44.934;3151206.0;1;0;7;0.0001881063050051;1;1;0;0;1;0;3;;;;0.0;0.0;3.0;;;
NOVA ANDRADINA;MS;Nova Andradina;-22.238;-53.3437;5006200.0;0;2;11;0.0001870009316186;1;1;0;0;1;0;1;;;;0.0;0.0;0.0;;;
SÃO JOSÉ DE ITAPERUNA;RJ;Itaperuna;-21.1997;-41.8799;3302205.0;1;1;4;0.0001862284653467;1;1;0;0;5;5;5;;;;0.0;2.0;2.0;;;
SOCIAL;MG;Coronel Fabriciano;-19.5179;-42.6276;3119401.0;0;2;6;0.0001817248302309;1;1;0;0;5;5;5;;;;0.0;2.0;2.0;;;
INTERNACIONAL;PB;Caaporã;-7.4289;-34.8967;2504001.0;1;0;4;0.0001803437628557;0;2;2;2;2;2;2;;;;;;;0.0;2.0;2.0
INTER SÃO GOTARDO;MG;São Gotardo;-19.3117;-46.0492;3162104.0;0;2;5;0.0001803049633596;1;1;0;0;1;0;3;;;;0.0;0.0;3.0;;;
BRASILEIRINHO;RJ;Rio de Janeiro;-22.9129;-43.2003;3304557.0;2;1;16;0.0001790018394474;1;1;0;0;5;5;5;;;;0.0;2.0;2.0;;;
GÁLATAS;ES;Itaguaçu;-19.8033;-40.855;3202700.0;2;1;5;0.0001786790118103;1;1;0;0;5;5;5;;;;0.0;2.0;2.0;;;
MISTO;MS;Três Lagoas;-20.7849;-51.7007;5008305.0;0;3;4;0.000177326562128;1;1;0;0;1;0;1;;;;0.0;0.0;0.0;;;
PROGRESSO;RR;Mucajaí;2.43998;-60.9096;1400308.0;0;3;20;0.0001769240663311;0;0;1;1;0;3;7;0.0;1.0;1.0;;;;;;
ALTAMIRA;PA;Altamira;-3.20407;-52.21;1500602.0;0;2;11;0.0001765774892237;0;0;3;3;3;1;0;1.0;0.0;3.0;;;;;;
BALSAS;MA;Balsas;-7.53214;-46.0372;2101400.0;0;1;3;0.0001754826338778;0;0;3;3;3;1;0;1.0;0.0;0.0;;;;;;
CANDANGO;DF;Brasília;-15.7795;-47.9297;5300108.0;1;0;6;0.0001748421922097;1;1;0;0;1;0;3;;;;0.0;0.0;3.0;;;
MIRANORTE;TO;Miranorte;-9.52907;-48.5922;1713304.0;0;1;5;0.0001734331744073;0;0;3;3;3;1;0;1.0;0.0;0.0;;;;;;
ARSENAL CARIDADE;CE;Caridade;-4.22514;-39.1912;2303006.0;1;0;9;0.000173039229147;0;2;2;2;2;2;2;;;;;;;0.0;1.0;0.0
CEART;MS;Dourados;-22.2239;-54.8064;5003702.0;0;1;5;0.0001729302892154;1;1;0;0;1;0;1;;;;0.0;0.0;0.0;;;
SÃO DOMINGOS;AL;Marechal Deodoro;-9.711;-35.8953;2704708.0;0;1;5;0.0001721322444528;0;2;2;2;2;2;2;;;;;;;1.0;0.0;3.0
SERRANO;PE;Serra Talhada;-7.98178;-38.289;2613909.0;0;1;9;0.0001717748686681;0;2;2;2;2;2;2;;;;;;;0.0;1.0;0.0
PORTELA;BA;Teixeira de Freitas;-17.5348;-39.7424;2931350.0;0;1;5;0.0001713809228757;1;1;0;0;5;5;5;;;;0.0;2.0;2.0;;;
AVAÍ B;SC;Florianópolis;-27.5945;-48.5477;4205407.0;2;2;8;0.0001712435631957;1;1;0;4;4;4;4;;;;1.0;1.0;1.0;;;
CHÃ GRANDE;PE;Chã Grande;-8.23827;-35.4571;2604502.0;0;1;4;0.0001700572915649;0;2;2;2;2;2;2;;;;;;;0.0;2.0;2.0
LAJEADENSE;RS;Lajeado;-29.4675;-51.9614;4311403.0;2;0;2;0.0001673914636172;1;1;0;4;4;4;4;;;;1.0;1.0;1.0;;;
GRÊMIO CARAJÁS;PA;Belém;-1.4558;-48.4902;1501402.0;0;0;5;0.0001618122977346;0;0;3;3;3;1;0;1.0;0.0;3.0;;;;;;
BOLAMENSE;SE;Tobias Barreto;-11.1798;-37.9995;2807402.0;0;0;6;0.0001618122977346;0;2;2;2;2;2;2;;;;;;;1.0;0.0;3.0
CAMAÇARI;BA;Camaçari;-12.6996;-38.3263;2905701.0;0;0;5;0.0001618122977346;0;2;2;2;2;2;2;;;;;;;1.0;0.0;1.0
MONTE CRISTO;GO;Goiânia;-16.6864;-49.2643;5208707.0;0;0;6;0.0001618122977346;1;1;0;0;1;0;3;;;;0.0;0.0;3.0;;;
MUTUM;MT;Nova Mutum;-13.8344;-56.0728;5106224.0;0;0;2;0.0001618122977346;1;1;0;0;1;0;1;;;;0.0;0.0;0.0;;;
TEIXEIRA DE FREITAS;BA;Teixeira de Freitas;-17.5399;-39.74;2931350.0;0;0;2;0.0001618122977346;1;1;0;0;5;5;5;;;;0.0;2.0;2.0;;;
ORLEANS;SC;Orleans;-28.3487;-49.2986;4211702.0;0;0;6;0.0001618122977346;1;1;0;4;4;4;4;;;;1.0;1.0;1.0;;;
COLINAS;TO;Colinas do Tocantins;-8.05764;-48.4757;1705508.0;0;0;4;0.0001618122977346;0;0;3;3;3;1;0;1.0;0.0;0.0;;;;;;
PAULISTANO;MT;Nortelândia;-14.4539;-56.8028;5106208.0;0;0;12;0.0001618122977346;1;1;0;0;1;0;1;;;;0.0;0.0;0.0;;;
ARAIOSES;MA;Araioses;-2.8942;-41.9058;2100909.0;0;0;2;0.0001618122977346;0;0;3;3;3;1;0;1.0;0.0;0.0;;;;;;
